,index,City Name,Country Code,Latitude,Longitude,Temperature,Humidity,Cloudiness,Wind-Speed,Wind-Direction
0,202,Fochville,za,-26.49,27.49,70.21,21,0,4.38,225
1,2032,Toora-Khem,ru,52.47,96.11,48.43,66,88,5.39,241.5
2,1506,Elk City,us,35.41,-99.4,69.69,64,1,5.82,170
3,1026,Bang Phae,th,13.69,99.93,92.53,63,0,10.09,172
4,1206,Kahului,us,20.89,-156.47,75.2,78,40,20.8,50
5,2437,Chokurdakh,ru,70.62,147.9,28.36,96,0,5.73,90.0002
6,1650,Dongsheng,cn,29.72,112.52,81.1,80,92,9.42,6.50021
7,740,Grand-Santi,gf,4.27,-54.38,71.2,100,88,2.15,45.0002
8,43,Port Lincoln,au,-34.72,135.86,67.6,70,80,15.68,356.5
9,1091,Barahona,do,18.21,-71.1,79.66,99,88,12.21,84.5002
10,1867,Anda,cn,46.41,125.33,75.88,31,36,11.77,349.5
11,872,Katiola,ci,8.14,-5.1,71.6,94,40,6.93,220
12,1407,Rosarito,mx,27.04,-109.91,79.21,39,8,13.22,314.5
13,1332,Matay,eg,28.42,30.79,94.6,34,0,10.09,0.000213623
14,687,Luwuk,id,-0.95,122.79,78.58,100,80,3.71,206
15,1649,Wuda,cn,39.5,106.72,67.24,20,44,12.21,288
16,1655,Yamada,jp,36.58,137.08,75.13,73,20,10.29,10
17,632,Mangai,cd,-4.07,19.59,86.23,70,20,2.93,309
18,234,Emerald,au,-23.53,148.16,73.27,46,32,14.79,80.5002
19,1232,Danshui,cn,22.81,114.46,89.29,70,0,10.65,204
20,942,Dinagat,ph,9.96,125.59,84.34,91,32,11.77,77.0002
21,1809,Tongliao,cn,43.61,122.27,81.1,29,80,4.61,70.5002
22,2084,Kytmanovo,ru,53.46,85.45,66.43,92,68,12.21,253.5
23,2428,Kamenka,ru,53.19,44.05,56.35,50,0,15.68,33.5002
24,1318,Ocampo,mx,27.32,-102.4,60.04,68,0,3.38,94.0002
25,251,Georgetown,sh,-7.93,-14.42,78.58,100,56,12.66,112
26,1880,Boissevain,ca,49.23,-100.06,60.8,77,1,10.29,270
27,609,Angoram,pg,-4.06,144.07,81.28,89,76,3.71,64.5002
28,389,Nampula,mz,-15.12,39.26,75.2,83,75,6.93,140
29,2411,Naryan-Mar,ru,67.67,53.09,46.18,92,20,7.96,224.5
30,1773,Brookings,us,44.31,-96.8,65.77,88,1,4.7,280
31,2327,Dzhebariki-Khaya,ru,62.22,135.8,70.3,28,8,8.19,311
32,591,Axim,gh,4.87,-2.24,73.81,100,92,7.63,201
33,2302,Timra,se,62.49,17.33,63.36,42,0,8.05,320
34,289,Nosy Varika,mg,-20.58,48.53,72.28,100,32,3.38,259
35,255,Pilikwe,bw,-22.8,27.19,76.78,33,44,8.75,54.5002
36,991,Ocos,gt,14.51,-92.19,77,88,75,6.4,40.0002
37,2194,Chunskiy,ru,56.08,99.63,62.38,35,0,5.17,238
38,1142,Atar,mr,20.52,-13.05,82.36,26,0,6.4,21.0002
39,1612,Black Forest,us,39.01,-104.7,62.04,54,1,4.7,90
40,1045,Sainte-Marie,mq,14.78,-60.99,78.8,78,75,5.82,90
41,2067,Ostroda,pl,53.7,19.96,71.74,70,56,5.39,121.5
42,1830,Mattawa,ca,46.32,-78.7,59,100,90,8.05,270
43,1570,Timizart,dz,36.8,4.25,82.9,37,56,2.26,160
44,2267,Lipin Bor,ru,60.26,37.97,67.51,59,0,11.65,252
45,1659,Shasta Lake,us,40.68,-122.36,54.36,93,90,2.37,79.0002
46,406,Ayacucho,pe,-13.16,-74.23,30.88,94,24,3.15,251
47,2088,Balagansk,ru,54.01,103.05,51.22,67,20,4.38,288
48,1559,Bon Air,us,37.52,-77.56,70.57,88,1,4.7,200
49,1618,Parkersburg,us,39.27,-81.55,66.25,93,75,3.38,198.5
50,84,Okato,nz,-39.19,173.88,56.8,100,80,24.63,241
51,630,Mossendjo,cg,-2.95,12.72,77.5,84,32,2.93,220.5
52,327,Ingham,au,-18.65,146.16,73.81,90,100,16.8,120
53,1670,State College,us,40.79,-77.86,63.1,88,1,3.38,220.5
54,223,Henties Bay,na,-22.12,14.28,62.38,100,44,4.38,165.5
55,2058,Grindavik,is,63.84,-22.43,47.48,100,90,24.16,170
56,617,Salinas,ec,0.49,-78.13,45.28,96,44,1.92,126
57,394,Srandakan,id,-7.94,110.25,83.26,64,88,7.96,145.5
58,1923,Youhao,cn,47.86,128.84,50.14,97,92,4.72,114
59,426,Ambilobe,mg,-13.19,49.05,91.54,36,0,6.51,132.5
60,1797,Kara-Tyube,ru,44.63,45.44,84.25,37,36,17.81,37.0002
61,1934,Blairmore,ca,49.61,-114.44,55.4,66,36,6.93,250
62,2421,Gravdal,no,59.79,5.78,55.4,82,0,12.75,340
63,947,Tecoanapa,mx,16.99,-99.26,82.4,78,75,2.15,11.0002
64,411,Porangatu,br,-13.44,-49.14,69.76,79,56,13.22,127
65,1036,Acacoyagua,mx,15.34,-92.68,60.94,88,36,1.36,102
66,2317,Noyabrsk,ru,63.2,75.45,37.63,68,8,13.11,319
67,133,Salamanca,cl,-31.78,-70.97,32.41,61,0,1.48,30.5002
68,1744,Eregli,tr,37.51,34.05,69.31,77,12,4.38,339
69,1369,Jennings,us,38.72,-90.26,71.62,88,1,3.36,200
70,1806,Mandalgovi,mn,45.76,106.27,61.84,23,8,18.37,303.5
71,642,Sibolga,id,1.74,98.78,74.8,97,48,2.15,38.0002
72,326,Katherine,au,-14.47,132.26,89.6,31,0,6.93,150
73,708,Buchanan,lr,5.88,-10.05,78.76,100,92,4.72,234
74,416,Benguela,ao,-12.58,13.4,75.2,78,75,2.93,71.5002
75,715,Wamba,cd,2.14,27.99,82.9,69,44,3.04,40.0002
76,2405,Ilulissat,gl,69.22,-51.1,39.2,48,12,12.75,80
77,116,Rio Cuarto,ar,-33.13,-64.35,44.6,93,0,5.82,360
78,999,Porto Novo,cv,17.02,-25.06,69.8,73,20,16.11,60
79,272,Uyuni,bo,-20.46,-66.82,14.5,57,0,3.04,316
80,252,Otjimbingwe,na,-22.35,16.13,62.56,89,0,4.38,61.0002
81,1182,Nizwa,om,22.93,57.53,94.96,36,8,6.06,174.5
82,343,Carai,br,-17.19,-41.69,62.92,99,92,3.71,162
83,1980,Nizhniy Tsasuchey,ru,50.52,115.13,57.7,88,92,6.06,257
84,1731,Ipswich,us,45.44,-99.03,62.6,77,1,5.82,230
85,1462,Camden,us,39.94,-75.12,70.47,83,1,3.36,230
86,161,Vila Velha,br,-3.71,-38.6,77,94,40,5.82,150
87,648,Kendari,id,-3.99,122.52,75.79,98,100,1.14,83.0002
88,1213,Moron,cu,22.11,-78.63,77,94,75,5.82,110
89,1815,Mombetsu,jp,44.35,143.35,46.4,93,75,9.17,330
90,1661,Evanston,us,42.04,-87.69,70.43,88,1,3.36,230
91,2245,Nizhniy Kuranakh,ru,58.84,125.49,68.95,35,0,3.04,125
92,746,Bubaque,gw,11.28,-15.83,69.8,88,56,6.93,260
93,481,Olinda,br,-22.82,-43.41,68.92,82,75,3.36,90
94,1201,Gushikawa,jp,26.35,127.87,82.4,83,75,18.34,210
95,806,Limbang,my,4.75,115,89.6,75,75,6.93,300
96,157,Reconquista,ar,-29.14,-59.64,47.26,88,12,5.95,58.5002
97,668,Candido Mendes,br,-1.45,-45.72,77.68,100,76,3.83,54.5002
98,917,Djougou,bj,9.71,1.67,71.6,83,40,4.7,360
99,1287,Ribeira Grande,pt,38.52,-28.7,60.8,82,20,8.05,30
100,2304,Lapua,fi,62.97,23.01,65.05,40,0,6.93,260
101,1656,Bethel,us,60.79,-161.76,48.2,87,90,4.7,250
102,1436,Shahreza,ir,32.01,51.87,74.17,27,0,3.15,311
103,1928,Petropavlovsk-Kamchatskiy,ru,53.05,158.65,41,86,75,8.95,160
104,489,Liwale,tz,-9.8,37.92,83.26,46,0,7.07,142.5
105,1130,Altamirano,mx,16.73,-92.04,65.89,86,48,2.04,309.5
106,1496,Hirado,jp,33.32,129.49,77,61,20,11.41,360
107,1791,Bradesti,ro,44.48,23.63,77,47,0,8.05,80
108,1040,Bull Savanna,jm,17.89,-77.59,78.04,74,92,9.98,120.5
109,2414,Snezhnogorsk,ru,69.19,33.23,53.6,27,40,13.42,310
110,511,Conceicao Do Araguaia,br,-8.26,-49.26,72.55,87,92,3.15,175.5
111,2370,Bud,no,62.91,6.91,51.19,81,75,3.36,80
112,2406,Sorland,no,67.67,12.69,48.2,66,75,10.29,270
113,64,General Roca,ar,-39.03,-67.58,30.16,64,0,3.38,282.5
114,1231,Nandu,cn,31.44,119.33,73.4,83,90,4.47,60
115,1024,Yanam,in,16.73,82.22,93.16,60,0,10.42,141
116,371,San Cristobal,ec,-1.02,-79.44,59.68,100,68,0.69,263
117,1256,Sharjah,ae,25.36,55.39,94.03,36,0,8.05,210
118,89,Olavarria,ar,-36.89,-60.32,43.84,91,0,9.98,2.50021
119,537,Paita,pe,-5.09,-81.11,62.83,94,0,4.5,174
120,1608,Fallon,us,46.84,-105.12,62.6,67,1,3.36,160
121,1252,Umm Lajj,sa,25.02,37.27,95.32,48,0,8.19,312.5
122,1967,Shubarkuduk,kz,49.15,56.49,52.48,100,92,18.25,359
123,2044,Katangli,ru,51.71,143.23,35.83,92,88,5.73,351
124,451,Sao Jose Da Coroa Grande,br,-8.9,-35.15,73.81,98,68,5.17,142
125,2008,Tiel,nl,51.88,5.43,72.12,68,90,8.05,100
126,1863,Erzin,ru,50.26,95.16,52.66,44,92,6.62,265
127,2175,Poddorye,ru,57.47,31.12,71.74,37,8,8.41,183.5
128,2235,Strezhevoy,ru,60.73,77.6,39.2,48,75,6.71,340
129,2184,Baykalovo,ru,64.58,40.26,69.8,30,0,11.18,310
130,2046,Kitimat,ca,54.02,-128.69,46.4,81,75,11.41,180
131,1505,Tucumcari,us,35.17,-103.73,60.8,63,1,5.82,90
132,1267,Dali,cn,25.6,100.24,69.49,77,80,1.36,190
133,1387,Zabol,ir,31.03,61.49,100.4,8,0,9.17,330
134,791,Nanga Eboko,cm,4.68,12.37,78.13,93,12,7.52,264
135,2206,Homer,us,59.64,-151.54,45.45,75,90,4.7,250
136,68,Batemans Bay,au,-35.71,150.18,49.87,100,0,0.92,342
137,2451,Berlevag,no,70.86,29.09,40.69,92,92,33.46,269.5
138,1035,Tomatlan,mx,19.93,-105.25,66.88,90,8,2.15,94.0002
139,2228,Lesnyye Polyany,ru,55.97,37.87,61.23,36,0,6.71,40
140,1634,Glossa,gr,35.47,23.78,75.2,69,75,8.41,6.00021
141,1057,Mao,td,14.12,15.31,98.2,39,0,13.11,213.5
142,1404,Severo-Kurilsk,ru,50.68,156.12,36.28,98,92,14.34,91.5002
143,2233,Salym,ru,60.06,71.48,47.17,39,0,6.51,357.5
144,1016,Aksum,et,14.12,38.72,89.56,14,0,6.29,340.5
145,1244,Andros Town,bs,24.73,-77.79,77.68,83,92,12.66,107.5
146,351,Nsanje,mw,-16.92,35.26,84.61,67,0,4.72,91.5002
147,890,Udankudi,in,8.43,78.03,85.15,89,76,10.2,211
148,2298,Floro,no,61.6,5.03,57.87,71,0,6.93,290
149,1203,Shimoda,jp,34.7,138.93,71.6,78,75,8.05,140
150,1747,Gali,ge,42.63,41.74,69.4,76,92,2.37,50.0002
151,1034,San Policarpo,ph,12.18,125.51,84.79,89,64,9.42,87.5002
152,514,Serra Talhada,br,-7.99,-38.29,66.52,89,0,8.86,146
153,1916,Zaysan,kz,47.47,84.87,70.66,40,0,7.07,54.0002
154,1794,Alushta,ua,44.68,34.41,73.18,81,8,10.65,39.0002
155,40,Christchurch,nz,-43.53,172.64,44.6,87,64,5.82,70
156,2083,Tyumentsevo,ru,53.32,81.5,71.02,96,8,7.85,211
157,2236,Parabel,ru,58.71,81.5,46.18,54,92,5.95,341.5
158,1926,Mayskiy,ru,43.63,44.06,64.4,88,90,6.71,250
159,1845,Szatymaz,hu,46.34,20.04,68.61,93,90,4.7,230
160,823,Totness,sr,5.88,-56.32,75.79,100,76,10.31,149
161,1970,Derzhavinsk,kz,51.1,66.31,81.73,22,56,19.48,240.5
162,1930,Prince Rupert,ca,54.32,-130.32,46.4,93,90,3.36,110
163,2257,Vagur,fo,61.47,-6.81,47.62,98,0,12.66,127.5
164,1083,Lompoc,us,34.64,-120.46,53.4,93,75,3.36,280
165,2020,Ivanteyevka,ru,55.97,37.92,61.23,36,0,6.71,40
166,2450,Longyearbyen,sj,78.22,15.64,32,95,75,5.82,10
167,2291,Anadyr,ru,64.73,177.51,35.6,87,0,6.71,320
168,978,Omalur,in,11.74,78.05,89.65,63,24,6.06,90.0002
169,2342,Belomorsk,ru,64.52,34.76,67.6,32,0,10.76,263.5
170,2294,Fairbanks,us,64.84,-147.72,50.54,66,1,3.38,234
171,2143,Atagay,ru,55.1,99.39,61.48,38,0,3.83,248
172,1566,Aljezur,pt,37.31,-8.8,62.65,97,48,2.26,87.5002
173,298,Neiafu,to,-18.65,-173.98,79.48,100,80,4.38,149
174,901,Kinablangan,ph,7.69,126.55,83.08,100,64,6.17,39.0002
175,58,Puerto Madryn,ar,-42.77,-65.04,57.79,64,44,16.02,294.5
176,478,Jeremoabo,br,-10.08,-38.34,66.88,95,100,2.93,265.5
177,1042,Pedernales,do,18.04,-71.74,76.78,100,32,12.66,84.0002
178,530,Banyuwangi,id,-8.21,114.37,79.57,90,92,7.96,146
179,842,Ugoofaaru,mv,5.67,73,84.61,99,48,21.72,296
180,245,Filadelfia,py,-22.35,-60.04,56.26,85,12,2.82,121
181,2011,Wschowa,pl,51.8,16.32,69.8,56,0,3.36,100
182,582,Itaituba,br,-4.26,-55.99,72.01,99,0,2.15,110
183,309,Prata,br,-19.31,-48.92,57.34,83,0,7.85,58.0002
184,1468,Camacha,pt,33.08,-16.33,62.6,51,75,12.75,360
185,1582,Bandar-E Anzali,ir,37.47,49.46,84.2,58,0,6.93,350
186,2242,Ust-Ilimsk,ru,57.96,102.73,58.24,47,48,3.6,250.5
187,1622,Halifax,ca,44.65,-63.58,50,100,90,3.36,100
188,1971,Astana,kz,51.13,71.43,86,24,75,35.79,230
189,1782,A Coruna,es,43.37,-8.4,56.19,93,90,4.7,360
190,738,Inirida,co,3.87,-67.92,72.91,100,92,2.26,156.5
191,186,Roma,au,-26.57,148.79,61.93,51,8,7.4,115
192,1976,Kosh-Agach,ru,49.99,88.66,51.76,53,48,6.96,296.5
193,1262,Sidhi,in,24.41,81.88,107.47,20,92,6.51,323.5
194,559,Lugoba,tz,-6.46,38.33,83.98,64,12,5.17,171
195,229,Manjacaze,mz,-24.71,33.88,81.91,62,0,9.64,179
196,1007,Sokoto,ng,13.06,5.24,85.42,76,48,12.44,206
197,2027,Kulunda,ru,52.57,78.94,79.21,47,20,20.15,239
198,1647,Kashi,cn,39.45,75.98,73.4,11,0,8.95,110
199,2369,Vestmanna,fo,62.16,-7.17,48.2,76,44,8.05,140
200,549,Canguaretama,br,-6.38,-35.14,75.2,88,40,9.17,190
201,80,Sale,au,-38.11,147.06,50.59,100,0,5.17,64.0002
202,501,Merauke,id,-8.49,140.4,84.7,74,76,19.04,121.5
203,515,Pitimbu,br,-7.47,-34.81,71.6,88,0,4.7,200
204,2416,Khatanga,ru,71.98,102.47,37.36,92,8,5.39,156
205,438,Sechura,pe,-5.56,-80.82,65.08,95,0,10.09,164
206,825,Cayenne,gf,4.94,-52.33,77,100,90,5.73,83.5002
207,1494,Guiren,cn,33.67,118.19,77.41,83,56,4.5,84.5002
208,506,Santiago De Chuco,pe,-8.15,-78.17,34.21,100,0,1.7,66.0002
209,1983,Nenjiang,cn,49.17,125.23,60.31,62,0,13.67,59.0002
210,1365,San Buenaventura,mx,27.06,-101.55,68.59,63,0,3.6,172.5
211,2357,Borogontsy,ru,62.67,131.17,72.01,18,0,9.86,311.5
212,1801,Zhanakorgan,kz,43.91,67.25,93.25,21,0,4.5,343
213,2115,Ashington,gb,55.18,-1.57,53.02,93,40,9.17,20
214,932,Madurai,in,9.93,78.11,89.6,59,40,3.36,100
215,1089,George Town,ky,19.29,-81.37,75.97,100,92,19.37,139.5
216,914,Kankan,gn,10.38,-9.3,77.59,89,0,10.2,238
217,811,Kloulklubed,pw,7.04,134.26,82.4,88,90,5.82,120
218,1041,Les Cayes,ht,18.19,-73.75,79.48,100,88,19.6,110.5
219,1977,Kholtoson,ru,50.3,103.31,48.88,49,12,9.75,286
220,2200,Chulman,ru,56.84,124.9,64.09,43,0,4.27,160.5
221,372,Santa Lucia,pe,-15.7,-70.61,17.74,89,12,3.27,240.5
222,81,Lakes Entrance,au,-37.88,147.99,53.47,95,0,6.96,80.5002
223,1424,Nador,ma,35.17,-2.93,64.35,68,0,3.36,290
224,2258,Brae,gb,60.4,-1.35,48.96,87,0,16.11,70
225,1095,Nouakchott,mr,18.08,-15.98,70.3,89,0,17.02,352
226,777,Ixtapa,mx,20.71,-105.21,75.2,94,40,1.92,135
227,2249,Ossora,ru,59.24,163.07,33.67,97,56,2.37,177
228,1214,Clarence Town,bs,23.1,-74.98,79.21,98,80,18.7,116.5
229,4,Ushuaia,ar,-54.81,-68.31,41,100,75,3.36,290
230,1862,Altay,cn,47.83,88.13,55.18,65,0,2.82,278
231,312,Conceicao Da Barra,br,-18.59,-39.73,68.86,100,92,8.63,143.5
232,711,Makokou,ga,0.56,12.85,80.47,81,44,3.04,265.5
233,36,Rio Gallegos,ar,-51.62,-69.22,46.4,73,0,13.87,320
234,2203,Okhotsk,ru,59.36,143.24,44.83,78,64,5.61,118
235,2402,Upernavik,gl,72.79,-56.15,24.4,100,44,18.25,352.5
236,1191,Teknaf,bd,20.86,92.31,90.91,63,24,4.72,217.5
237,1952,Octeville,fr,49.63,-1.64,57.85,93,90,11.41,40
238,698,Mitu,co,1.2,-70.17,70.93,100,100,2.37,214
239,1657,Sitka,us,37.17,-99.65,64.54,81,0,6.17,126
240,750,Yenagoa,ng,4.92,6.26,75.43,100,92,4.16,210.5
241,894,Ron Phibun,th,8.18,99.85,82.4,83,75,11.41,350
242,2179,Krasnyye Baki,ru,57.13,45.16,58.51,41,0,3.6,330
243,605,Tambun,id,-6.26,107.07,89.6,66,20,12.75,20
244,744,Cururupu,br,-1.82,-44.87,72.01,99,24,2.37,17.0002
245,583,Altamira,br,-3.2,-52.21,72.91,96,12,3.83,22.5002
246,291,Sainte-Rose,re,-21.13,55.8,81.5,61,20,20.8,100
247,275,Bonito,br,-1.36,-47.3,71.83,98,88,7.4,73.5002
248,1301,Ajmer,in,26.47,74.64,109.81,14,0,7.4,276
249,476,Gilbues,br,-9.83,-45.34,70.84,78,8,10.31,121
250,2399,Bilibino,ru,68.06,166.44,40.33,68,44,2.93,127.5
251,21,Mar Del Plata,ar,-46.43,-67.52,51.94,55,8,26.75,287
252,409,Vilhena,br,-12.74,-60.15,65.35,83,12,3.15,138.5
253,1360,Half Moon Bay,us,37.46,-122.43,55.62,93,90,11.41,320
254,1529,Garmsar,ir,35.22,52.34,80.74,29,24,5.61,289
255,1839,Challans,fr,46.85,-1.88,61.99,93,8,8.05,50
256,600,Kihurio,tz,-4.47,38.07,69.22,95,88,3.94,171.5
257,405,Chilca,pe,-13.22,-72.34,37.4,74,40,1.92,188
258,889,Dhidhdhoo,mv,6.88,73.1,82.45,100,88,21.72,292.5
259,2340,Kajaani,fi,64.22,27.73,59,58,0,6.93,250
260,1046,Ponta Do Sol,cv,17.2,-25.09,69.76,100,80,16.24,47.0002
261,136,Parana,ar,-31.73,-60.52,45.46,88,0,5.84,31.5002
262,1190,Baghmara,in,23.8,86.21,105.04,28,24,4.94,268.5
263,1653,Dandong,cn,40.12,124.37,70.93,42,8,6.62,205.5
264,396,Alyangula,au,-13.85,136.42,80.56,87,0,16.02,101.5
265,395,Boyolangu,id,-8.09,111.9,82.63,65,88,6.17,172.5
266,85,Turangi,nz,-39,175.93,40.87,100,24,10.2,262.5
267,1554,Winfield,us,41.41,-87.28,70.07,100,40,4.7,210
268,101,San Rafael,ar,-34.61,-68.33,28.9,71,0,4.72,259.5
269,1112,Farrukhnagar,in,28.45,76.82,111.2,10,20,5.82,290
270,1725,Waverly,us,37.04,-77.1,71.19,88,1,4.7,200
271,1297,Iranshahr,ir,27.21,60.69,100.4,12,0,6.93,220
272,1555,Lebanon,us,43.64,-72.25,60.46,82,1,4.72,287.5
273,299,Vaitape,pf,-16.52,-151.75,81.01,100,48,14.56,109
274,586,Piripiri,br,-4.27,-41.78,68.5,92,8,2.59,97.0002
275,2178,Novopistsovo,ru,57.32,41.85,62.29,47,0,7.18,264
276,1870,Vostok,ru,46.45,135.83,57.7,51,8,2.71,356
277,1701,Jiuquan,cn,39.73,98.49,57.34,47,0,7.18,309
278,1853,Marfino,ru,56.07,37.56,61.36,36,0,6.71,40
279,788,Robertsport,lr,6.75,-11.37,79.75,100,88,4.16,303.5
280,1679,Santa Marta De Tormes,es,40.95,-5.63,53.6,87,20,4.5,204
281,1323,Callaway,us,46.98,-95.91,64.51,77,1,3.27,232.5
282,1086,Amatan,mx,17.37,-92.82,68.68,90,92,1.92,181
283,752,Sangmelima,cm,2.93,11.98,77.41,87,24,2.93,322.5
284,564,Jati,id,3.58,98.66,78.58,95,92,3.6,27.0002
285,1072,Pyapon,mm,16.29,95.68,89.83,72,12,13.22,156.5
286,169,Byron Bay,au,-28.65,153.62,62.6,82,75,10.29,210
287,423,Montepuez,mz,-13.13,39,80.74,61,0,12.21,125
288,1498,Kumano,jp,34.34,132.59,72.54,60,5,8.05,170
289,322,Le Port,re,-20.94,55.29,81.54,61,20,20.8,100
290,666,Almeirim,br,-1.53,-52.58,75.7,91,68,3.15,57.0002
291,2386,Urengoy,ru,65.96,78.37,26.92,100,68,18.03,301
292,1936,Swift Current,ca,50.29,-107.8,53.6,62,1,6.93,130
293,529,Jatiroto,id,-7.61,109.46,82.63,88,44,15.79,126.5
294,793,Bosobolo,cd,4.19,19.88,79.39,100,36,4.61,149.5
295,183,Ventersburg,za,-28.08,27.14,67.24,40,0,4.38,139.5
296,1898,Chaumont,fr,48.11,5.14,69.8,73,76,10.29,100
297,625,Mocajuba,br,-2.58,-49.5,73.63,99,88,2.71,42.5002
298,1065,Ratnagiri,in,16.98,73.3,88.57,90,0,20.38,327.5
299,1945,Port-Cartier,ca,50.03,-66.88,26.6,100,75,5.17,347
300,712,Ouesso,cg,1.61,16.05,84.16,73,24,3.6,277
301,284,Chiredzi,zw,-21.05,31.67,78.31,67,0,6.73,140.5
302,1008,Zinder,ne,13.81,8.99,82.4,51,0,4.7,180
303,2282,Suntar,ru,62.16,117.65,77.5,22,0,10.2,143.5
304,1987,Vysokogornyy,ru,50.1,139.13,51.94,52,36,3.15,21.0002
305,1904,Edinet,md,48.17,27.3,76.69,57,0,8.41,61.0002
306,1562,Nantucket,us,41.28,-70.1,61.23,87,1,12.75,230
307,13,New Norfolk,au,-42.78,147.06,50,71,20,5.82,170
308,477,Remanso,br,-9.62,-42.08,71.38,100,0,14,126
309,604,Baturaja,id,-4.12,104.17,78.94,100,24,4.61,208
310,1716,Coos Bay,us,43.37,-124.22,49.1,81,90,2.82,353
311,2337,Grong,no,64.47,12.32,51.62,58,40,3.36,180
312,732,Hilo,us,19.71,-155.08,73.4,88,90,6.93,200
313,2265,Garbolovo,ru,60.34,30.5,69.8,37,0,8.95,250
314,907,Chivolo,co,10.03,-74.62,75.97,92,80,5.84,164
315,2017,Kastornoye,ru,51.83,38.13,57.7,71,0,16.02,68.0002
316,2028,Pospelikha,ru,51.99,81.83,77.14,57,12,17.58,237
317,2332,College,us,64.86,-147.8,50.52,66,1,3.38,234
318,29,Castro,cl,-42.48,-73.76,48.25,93,80,6.85,285
319,265,Moranbah,au,-22,148.04,69.58,57,36,14.45,95.5002
320,1942,Kapuskasing,ca,49.42,-82.43,44.6,81,90,12.75,50
321,792,Carnot,cf,4.94,15.87,80.38,90,20,6.29,276.5
322,1994,Foam Lake,ca,51.65,-103.53,57.25,95,0,6.62,306.5
323,2064,Bremervorde,de,53.48,9.13,65.28,63,20,10.29,90
324,989,Sulangan,ph,11.14,123.72,86.41,100,20,9.31,58.0002
325,32,Arraial Do Cabo,br,-22.97,-42.02,67.69,98,24,3.15,49.0002
326,522,Manono,cd,-7.3,27.4,93.16,33,0,6.17,120
327,2198,Bodaybo,ru,57.85,114.2,66.52,42,20,4.94,151
328,532,Tual,id,-5.67,132.75,81.28,100,12,8.63,158.5
329,755,Aketi,cd,2.74,23.78,72.01,100,92,3.27,246
330,1386,Bardsir,ir,29.93,56.57,87.8,5,20,9.17,320
331,33,Jamestown,sh,-15.94,-5.72,72.46,100,20,14.34,115
332,863,Montecristo,co,8.3,-74.47,71.11,100,92,2.15,203.5
333,2310,Dvinskoy,ru,62.16,45.12,63.82,44,56,10.42,246
334,1689,Iskilip,tr,40.73,34.47,65.53,92,8,3.27,16.5002
335,2229,Pozhva,ru,59.09,56.08,51.04,55,0,13.67,354
336,1847,Vultureni,ro,46.4,27.27,73.4,53,0,11.41,360
337,643,Sungaipenuh,id,-2.08,101.38,71.38,94,48,0.13,221.5
338,2210,Nuuk,gl,64.17,-51.74,32,100,80,19.46,190
339,1825,Wahpeton,us,46.27,-96.61,66.94,48,1,5.82,260
340,362,Innisfail,au,-17.52,146.03,66.16,93,92,5.95,138.5
341,739,Bonfim,br,-20.33,-44.24,59,87,0,4.7,100
342,1225,Satkhira,bd,22.72,89.08,95,63,40,18.34,180
343,608,Amahai,id,-3.31,129,79.84,100,80,3.83,203
344,2104,Terrace,ca,54.52,-128.61,46.4,81,75,11.41,180
345,854,Taganak,ph,6.08,118.3,86.23,100,36,8.19,61.5002
346,1085,Tlacolula,mx,16.95,-96.48,49.96,94,0,2.71,5.00021
347,113,Constitucion,cl,-35.33,-72.42,50.41,100,88,8.63,31.0002
348,373,Caranavi,bo,-15.83,-67.57,54.46,80,0,1.92,181
349,1937,Weyburn,ca,49.67,-103.85,59.23,74,0,4.27,296.5
350,1888,Causapscal,ca,48.35,-67.23,31.78,83,8,3.04,301.5
351,2268,Verkhovazhye,ru,60.75,42.05,67.06,50,0,15.79,250.5
352,2045,Oktyabrskiy,ru,55.61,37.97,61.27,31,0,6.71,60
353,802,Male,mv,4.17,73.51,87.8,74,75,18.34,250
354,1218,Riyadh,sa,24.63,46.72,96.8,11,0,6.93,150
355,153,Coquimbo,cl,-29.95,-71.34,51.8,87,90,4.7,90
356,1171,Santa Fe,cu,23.13,-82.26,73.4,88,75,5.82,100
357,363,Bowen,au,-20.01,148.25,73.4,73,40,17.22,120
358,631,Bolobo,cd,-2.17,16.23,86.23,64,0,3.38,273
359,1033,Cabadiangan,ph,10.45,123.98,91.4,55,20,10.29,60
360,1181,Abu Dhabi,ae,24.47,54.37,96.8,32,0,8.05,160
361,1067,Londa,in,15.45,74.49,94.96,46,36,4.38,332
362,733,Acapulco,mx,16.86,-99.88,84.2,74,75,4.7,300
363,1979,Kyra,ru,49.58,111.97,42.22,85,92,9.31,352
364,2446,Havoysund,no,71,24.66,41,75,75,41.38,240
365,1635,Bergama,tr,39.12,27.18,76.57,64,40,11.41,340
366,2060,Skerries,ie,53.58,-6.11,55.4,87,75,14.99,50
367,1814,Yoichi,jp,43.19,140.77,50.86,85,0,7.52,335
368,1816,Kurilsk,ru,45.23,147.88,41.23,94,80,13.78,272.5
369,2215,Tananger,no,58.94,5.59,60.19,59,0,8.05,360
370,1692,Mosesgegh,am,40.91,45.49,74.26,47,44,2.59,319
371,1260,Bari Sadri,in,24.42,74.48,107.74,19,0,5.28,237.5
372,900,Silae,ph,8.16,125.3,81.91,69,80,5.5,97.0002
373,1897,Saran,fr,47.95,1.88,68,82,0,9.17,90
374,1553,Dodge City,us,37.75,-100.02,68,88,1,10.29,190
375,764,Galle,lk,6.04,80.22,74.98,100,92,6.29,245.5
376,1940,Dryden,ca,49.79,-92.84,59,93,40,6.93,100
377,1872,Novikovo,ru,51.15,37.89,57.97,66,0,16.46,71.5002
378,1885,Malartic,ca,48.14,-78.13,52.63,81,75,9.17,20
379,55,Ancud,cl,-41.87,-73.83,49.33,89,68,6.51,285
380,1932,Lillooet,ca,50.69,-121.94,62.6,45,1,13.87,200
381,921,Bousso,td,10.48,16.71,87.58,76,20,7.96,211
382,72,Gisborne,nz,-38.66,178.02,46.27,67,0,10.2,259
383,1189,Kamakhyanagar,in,20.93,85.54,97.12,56,0,9.31,193
384,2289,Dukat,ru,62.55,155.55,44.92,35,88,3.49,275.5
385,902,Nanakuli,us,21.39,-158.15,76.14,73,75,5.82,90
386,341,Piracanjuba,br,-17.3,-49.02,60.04,95,0,11.21,68.5002
387,1372,Merritt Island,us,28.54,-80.67,72.16,100,1,3.36,110
388,1539,Yuncheng,cn,35.03,111,67.87,65,68,9.31,300.5
389,1030,Tuy Hoa,vn,13.08,109.3,83.26,88,76,2.71,154
390,2097,Mnogovershinnyy,ru,53.94,139.92,54.91,61,0,1.14,243.5
391,2432,Labytnangi,ru,66.66,66.39,36.64,98,76,11.88,233
392,773,Butaritari,ki,3.07,172.79,84.16,100,44,11.65,79.0002
393,763,Muli,mv,2.92,73.57,83.8,100,80,20.38,276
394,146,Broken Hill,au,-31.97,141.45,62.74,58,32,9.08,35.5002
395,2096,Tokur,ru,53.13,132.9,58.24,49,0,3.94,1.50021
396,1463,Starkville,us,33.45,-88.82,68.86,93,90,3.6,213.5
397,983,Dong Xoai,vn,11.53,106.92,81.01,91,48,3.38,87.5002
398,1097,Goundam,ml,16.42,-3.66,96.13,30,88,13.22,254
399,2152,Magadan,ru,59.56,150.8,51.8,57,20,11.18,140
400,903,Corinto,ni,12.48,-87.17,75.07,95,88,3.27,161.5
401,2040,Seryshevo,ru,51.09,128.38,66.25,59,20,6.4,52.5002
402,1315,Kailua,us,21.39,-157.74,76.06,78,40,10.29,70
403,1965,Aleksandrov Gay,ru,50.14,48.57,61.03,34,0,25.41,27.0002
404,1193,Mae Sai,th,20.43,99.88,91.4,59,40,3.36,160
405,46,Saldanha,za,-33.01,17.94,61.75,82,0,3.49,103
406,2284,Berdigestyakh,ru,62.1,126.7,70.48,31,0,5.73,327.5
407,1838,Quimper,fr,48,-4.1,57.18,93,90,8.05,20
408,297,Tadine,nc,-21.55,167.88,73.9,100,92,17.25,111.5
409,815,Champerico,gt,14.3,-91.92,75.97,100,44,2.93,18.0002
410,1156,Ha Tinh,vn,18.33,105.9,88.3,84,56,10.76,203.5
411,1766,Obihiro,jp,42.92,143.2,64.4,42,20,11.41,340
412,1078,Bolitoc,ph,15.74,119.88,85.51,83,32,4.94,302.5
413,1541,Jiehu,cn,35.54,118.45,78.94,52,80,4.72,124
414,964,Diapaga,bf,12.07,1.79,87.31,59,80,14,222
415,1327,Arrecife,es,28.96,-13.55,66.2,63,20,20.8,330
416,1500,Morro Bay,us,35.37,-120.85,54.19,93,75,3.36,280
417,337,Colquiri,bo,-17.42,-67.13,16.57,67,0,2.26,198.5
418,700,Boa Vista,br,2.82,-60.67,77,94,40,2.24,60
419,498,Atambua,id,-9.11,124.89,84.34,83,44,1.7,138.5
420,837,Mizan Teferi,et,6.99,35.58,73.27,85,24,2.37,143.5
421,1308,Rongcheng,cn,37.16,122.42,71.38,52,32,7.74,161.5
422,216,Pozo Colorado,py,-23.49,-58.8,54.46,85,0,2.93,153.5
423,1960,Rzhyshchiv,ua,49.97,31.05,66.94,42,0,13.42,60
424,1817,Ucluelet,ca,48.94,-125.55,45.64,99,56,1.59,279.5
425,232,Saint-Louis,re,-21.27,55.42,81.41,51,0,6.93,250
426,398,Samarai,pg,-10.62,150.67,77.41,100,88,23.73,118.5
427,1617,North Vernon,us,39.01,-85.62,73.4,69,1,5.82,200
428,91,Flinders,au,-34.58,150.85,59,77,0,6.93,140
429,427,Sambava,mg,-14.27,50.17,74.8,100,100,20.38,173
430,1176,Taoudenni,ml,22.68,-3.98,96.4,18,0,14.9,13.5002
431,1891,Harbour Breton,ca,47.48,-55.8,41.14,96,88,6.4,213.5
432,787,Sao Filipe,cv,14.9,-24.5,70.12,100,20,14.12,38.5002
433,295,Poum,nc,-20.23,164.02,71.92,100,100,16.8,98.5002
434,65,Tres Arroyos,ar,-38.38,-60.28,50.41,71,0,15.57,334
435,2419,Tuktoyaktuk,ca,69.44,-133.03,28.4,100,92,21.92,280
436,1648,Wuwei,cn,37.93,102.64,55.09,62,24,3.83,26.5002
437,834,Bozoum,cf,6.31,16.38,78.4,89,44,4.72,255
438,2426,Vardo,no,70.37,31.11,44.83,87,32,30.56,269
439,807,Tawau,my,4.26,117.89,89.6,70,75,6.93,140
440,1032,Balanacan,ph,13.53,121.87,86.14,95,64,3.83,66.0002
441,1278,Brownsville,us,25.91,-97.49,76.37,88,20,4.7,180
442,634,Kampene,cd,-3.59,26.67,90.01,45,12,2.82,359
443,1259,Tharad,in,24.39,71.63,109.54,26,0,5.95,269
444,1600,Sakaiminato,jp,35.55,133.23,79.63,13,20,6.93,50
445,469,Santiago De Cao,pe,-7.96,-79.24,62.6,93,90,6.93,130
446,215,Salta,ar,-24.79,-65.41,44.6,93,90,2.24,50
447,615,Lufilufi,ws,-13.87,-171.6,84.43,98,80,16.02,92.0002
448,193,Presidencia Roque Saenz Pena,ar,-26.79,-60.44,42.58,75,0,2.93,53.5002
449,2015,Ripky,ua,51.8,31.09,67.96,47,0,17.13,93.0002
450,1793,Sfantu Gheorghe,ro,44.65,26.83,78.8,47,0,14.99,50
451,1593,Zhangye,cn,38.94,100.46,60.94,72,0,4.5,317
452,1245,Los Llanos De Aridane,es,28.66,-17.92,64.4,68,20,4.7,20
453,748,Monrovia,lr,6.33,-10.8,77.32,99,100,4.38,307
454,638,Lamu,ke,-2.27,40.9,80.56,88,76,17.47,180
455,131,Ngunguru,nz,-35.62,174.5,58.51,100,24,18.92,250
456,1606,Kodiak,us,39.95,-94.76,71.6,83,1,5.82,190
457,771,Tarakan,id,3.3,117.63,86.86,84,8,4.16,92.0002
458,408,San Ramon,bo,-13.27,-64.62,67.69,83,0,7.63,175
459,368,Faanui,pf,-16.48,-151.75,81.19,100,68,17.25,106
460,597,Kasongo,cd,-4.43,26.67,92.8,37,12,3.15,52.0002
461,2042,Imeni Poliny Osipenko,ru,52.42,136.49,60.04,49,0,4.16,13.5002
462,735,Guapi,co,2.57,-77.89,73.45,100,92,2.59,142
463,1188,Kurud,in,20.85,81.72,105.4,35,12,4.72,249
464,1705,Zhangjiakou,cn,40.77,114.88,59.86,66,88,9.31,287.5
465,1485,Panjab,af,34.38,67.02,48.7,77,20,1.14,26.0002
466,876,Lafia,ng,8.5,8.51,79.57,98,36,7.4,242.5
467,2026,Ekibastuz,kz,51.72,75.32,84.61,32,0,22.5,241.5
468,2385,Pangody,ru,65.85,74.49,25.66,97,32,14.67,303
469,335,Acari,pe,-15.44,-74.62,48.7,74,44,1.14,142
470,905,Bocas Del Toro,pa,9.33,-82.25,81.01,100,48,1.92,311.5
471,1642,Balkanabat,tm,39.51,54.36,100.18,8,0,2.15,256
472,908,Bachaquero,ve,9.96,-71.12,80.38,100,48,12.44,173.5
473,109,Swan Hill,au,-35.34,143.56,53.56,91,68,7.4,63.5002
474,2261,Hof,no,59.53,10.09,66.2,48,0,10.29,10
475,1660,Winnemucca,us,40.97,-117.74,50,76,1,11.41,260
476,2372,Nesna,no,66.2,13.02,50,57,75,10.29,250
477,1289,Puerto Del Rosario,es,28.5,-13.86,66.2,68,75,9.17,360
478,859,San Jose,gt,16.98,-89.9,71.74,91,56,2.37,212
479,1101,Agadez,ne,16.97,7.99,89.6,52,12,9.17,220
480,1571,Sajanan,tn,37.06,9.24,73.13,53,20,11.41,60
481,400,Luganville,vu,-15.51,167.18,75.34,100,100,22.62,129.5
482,1389,Mach,pk,29.87,67.33,83.53,10,0,11.65,296
483,194,Yegros,py,-26.46,-56.4,57.25,89,36,2.37,56.0002
484,253,Gobabis,na,-22.45,18.97,71.2,30,0,6.62,355.5
485,170,Vao,nc,-22.67,167.48,73.54,100,92,20.04,113
486,1675,Bay Roberts,ca,47.58,-53.28,38.3,100,90,10.29,170
487,1879,Williston,us,48.15,-103.62,59.95,77,1,9.17,230
488,456,Mpika,zm,-11.84,31.4,75.16,46,0,12.44,106
489,621,Tonantins,br,-2.86,-67.77,72.91,99,56,2.71,261
490,1168,Celestun,mx,20.87,-90.4,78.4,100,68,8.97,40.0002
491,206,Saint-Pierre,re,-21.34,55.48,81.39,51,0,6.93,250
492,73,Lebu,cl,-37.62,-73.65,55,100,100,11.99,341
493,1792,Perieti,ro,44.4,24.55,77,47,0,8.05,80
494,1540,Daokou,cn,35.61,105.12,54.28,57,92,9.42,355
495,1021,Baindur,in,13.87,74.63,88.03,93,56,22.84,308
496,988,Sulat,ph,11.81,125.45,84.79,89,64,9.42,87.5002
497,516,Gamba,ga,-2.72,10.02,78.04,97,76,5.61,154.5
498,1991,Didsbury,ca,51.66,-114.14,61.97,48,75,10.29,210
499,158,Quarai,br,-30.39,-56.45,44.11,88,0,3.94,72.5002
500,1538,Pingliang,cn,35.54,106.68,60.85,51,56,9.75,347
501,754,Gemena,cd,3.25,19.78,72.82,99,88,1.92,113
502,1637,Nevsehir,tr,38.62,34.71,71.08,64,40,4.7,50
503,166,Narrabri,au,-30.33,149.78,53.11,73,0,6.4,157.5
504,2408,Kautokeino,no,69.01,23.04,44.74,48,0,17.58,285
505,870,Rotifunk,sl,8.23,-12.68,80.92,80,8,3.83,312.5
506,1875,Grand Forks,ca,49.03,-118.46,58.42,47,36,1.48,201
507,2140,Chernenko,ru,44.37,39.31,78.4,56,32,8.19,63.0002
508,2207,Fort Nelson,ca,58.81,-122.69,50,93,90,8.05,280
509,2259,Lindas,no,60.74,5.16,64.54,44,0,2.59,326.5
510,1248,Awjilah,ly,29.14,21.3,83.71,39,0,7.96,26.5002
511,273,Villamontes,bo,-21.26,-63.47,47.35,88,0,3.94,352
512,1227,Mogok,mm,22.92,96.51,79.3,82,48,2.15,265
513,647,Kualakapuas,id,-3.01,114.39,85.78,77,32,6.73,94.0002
514,2322,Chernyshevskiy,ru,63.01,112.47,66.7,40,0,9.53,120.5
515,637,Wundanyi,ke,-3.4,38.37,73.27,79,68,7.29,152.5
516,607,Majene,id,-3.54,118.97,82.18,100,92,14.12,112.5
517,1757,Yining,cn,29.04,114.56,78.31,88,80,3.15,18.5002
518,1638,Malatya,tr,38.35,38.32,77.59,27,0,6.93,110
519,877,Poli,cm,8.48,13.24,76.6,90,100,2.04,189.5
520,2047,Burns Lake,ca,54.23,-125.76,39.34,61,0,5.95,239.5
521,1799,Shetpe,kz,44.14,52.16,92.53,21,20,12.77,342
522,1146,Porbandar,in,21.64,69.61,92.98,53,0,19.93,293.5
523,1136,Constanza,do,18.91,-70.74,75.2,94,75,8.05,110
524,1162,Katsuura,jp,33.93,134.5,77,41,0,6.93,240
525,828,Oume,ci,6.38,-5.42,69.8,94,75,11.77,242.5
526,594,Kinshasa,cd,-4.32,15.31,75.2,83,40,3.36,220
527,165,Yulara,au,-25.24,130.99,80.6,19,88,2.24,200
528,1192,Meiktila,mm,20.88,95.86,94.96,55,24,6.96,206.5
529,2031,Shagonar,ru,51.54,92.92,53.56,58,56,3.15,243.5
530,14,Hobart,au,-42.88,147.33,50,71,20,5.82,170
531,104,Montevideo,uy,-34.83,-56.17,46.4,87,0,6.93,30
532,1668,Huntington,us,40.87,-73.43,69.8,77,1,10.29,250
533,414,Salvador,br,-12.98,-38.48,75.2,88,75,13.87,120
534,1986,Elban,ru,50.1,136.51,57.16,39,20,5.39,11.0002
535,1669,Wadsworth,us,41.03,-81.73,63.55,82,1,3.38,208
536,83,Westport,nz,-41.75,171.6,45.82,100,92,3.49,271.5
537,2070,Horki,by,54.29,30.98,62.6,51,0,8.95,120
538,2079,Sergeyevka,kz,53.88,67.42,45.1,100,100,17.69,19.0002
539,1455,Pacifica,us,37.61,-122.49,55.96,93,90,11.41,320
540,1433,Hit,iq,33.64,42.83,101.71,17,0,5.28,45.5002
541,742,Amapa,br,-1.83,-56.23,75.16,93,0,2.37,20.0002
542,659,Manta,ec,-0.95,-80.73,71.6,88,75,4.7,240
543,574,Panguna,pg,-6.32,155.48,76.69,91,20,3.71,82.0002
544,1322,Estelle,us,32.87,-97.01,74.19,78,75,9.17,80
545,2077,Yuzhnyy,ru,53.54,39.45,59.14,69,0,12.77,58.5002
546,1765,Iwanai,jp,42.97,140.51,50.59,92,0,4.61,315
547,1376,Marrakesh,ma,31.63,-7.99,59,82,75,4.7,180
548,760,Mandera,ke,3.94,41.87,92.71,44,32,14.12,209
549,11,Busselton,au,-33.64,115.35,63.55,100,8,19.26,237.5
550,1615,Columbia,us,38.95,-92.33,69.8,90,1,4.94,219.5
551,2170,Kinna,se,57.51,12.69,68,49,0,3.27,5.50021
552,757,Arua,ug,3.02,30.91,77.23,100,12,4.61,74.0002
553,460,Bandraboua,yt,-12.7,45.12,84.2,66,20,10.29,170
554,1796,Ivanovskoye,ru,51.61,34.94,62.65,54,0,18.81,85.0002
555,494,Singaparna,id,-7.35,108.11,78.13,71,36,2.71,134
556,2334,Raudeberg,no,61.99,5.14,54.79,71,0,6.93,290
557,1732,Yarmouth,ca,43.84,-66.12,55.4,82,90,13.87,270
558,167,Inverell,au,-29.78,151.11,49.42,85,48,4.38,75.0002
559,723,Singapore,sg,1.29,103.85,83.1,88,75,4.7,240
560,2387,Igarka,ru,67.47,86.57,31.42,100,80,14,227.5
561,1378,Mizdah,ly,31.45,12.98,76.33,47,0,6.29,96.0002
562,570,Kiunga,pg,-6.12,141.3,75.88,97,36,2.04,99.0002
563,926,Dejen,et,10.16,38.15,82.18,30,0,2.04,214
564,2137,Barabinsk,ru,55.35,78.35,42.85,98,92,20.6,64.5002
565,1591,Aksu,cn,41.12,80.26,69.4,29,0,4.38,256.5
566,852,Miri,my,4.41,114.01,89.6,70,75,8.05,270
567,225,Aranos,na,-24.14,19.11,70.48,21,0,5.17,350
568,2196,Ulkan,ru,57.24,107.32,44.11,89,88,4.27,246
569,534,Kokoda,pg,-8.88,147.74,66.88,98,64,1.7,54.5002
570,259,Manakara,mg,-22.14,48.01,77.23,94,0,7.63,24.0002
571,1073,Uthai Thani,th,15.37,100.05,93.25,53,48,8.3,190.5
572,120,Sao Joao Da Barra,br,-21.64,-41.05,74.08,100,92,9.64,128
573,1167,Tecolutla,mx,17.31,-98.74,64.27,99,80,1.7,177.5
574,1996,Gimli,ca,50.63,-96.99,58.33,97,68,3.71,265
575,1727,Forest Hills,us,36.07,-86.85,68.23,94,1,5.06,197
576,1785,Figeac,fr,44.61,2.03,68.63,56,0,19.46,130
577,308,Cassilandia,br,-19.11,-51.73,58.78,89,0,5.39,94.5002
578,1522,Platanos,gr,35.47,23.6,75.2,69,75,18.03,12.0002
579,665,Oriximina,br,-1.77,-55.87,74.35,96,0,2.37,34.5002
580,1499,Ukiah,us,39.15,-123.21,53.6,87,90,2.48,281.5
581,1004,Markala,ml,13.69,-6.07,94.78,45,0,11.88,236.5
582,1223,Gaurela,in,22.75,81.9,103.96,26,76,3.6,208.5
583,704,Itarema,br,-2.92,-39.92,74.98,98,32,4.05,136
584,115,San Luis,ar,-33.3,-66.34,50.77,73,0,12.44,356
585,376,Varzea Grande,br,-29.42,-50.86,38.98,81,0,1.92,29.5002
586,2120,Ustka,pl,54.58,16.86,64.36,79,48,4.61,25.0002
587,392,Maroantsetra,mg,-15.43,49.74,70.48,100,100,8.19,166
588,1609,West Wendover,us,40.74,-114.07,71.6,18,1,4.7,260
589,767,Mersing,my,2.43,103.84,78.49,100,76,5.84,155.5
590,548,Alexandria,br,-6.41,-38.01,69.13,92,20,3.83,142
591,2409,Kovdor,ru,67.56,30.47,53.74,39,8,10.65,291
592,1063,Sayyan,ye,15.17,44.32,82.63,12,0,8.52,36.5002
593,22,Chuy,uy,-33.69,-53.46,45.82,96,0,5.73,18.0002
594,1728,Glencoe,ca,42.75,-81.71,64.51,72,1,8.08,239
595,1715,North Bend,us,43.41,-124.22,49.1,93,90,2.82,353
596,342,Buritizeiro,br,-17.37,-44.96,59.68,96,12,4.61,86.5002
597,1056,Tanout,ne,14.97,8.88,97.12,32,12,13.67,225
598,415,Conde,br,-11.81,-37.61,72.1,100,92,7.18,128.5
599,276,Panorama,br,-21.35,-51.86,64.54,66,0,11.21,103.5
600,1359,Ahuimanu,us,21.44,-157.84,76.08,78,40,10.29,70
601,1919,Ulaanbaatar,mn,47.92,106.92,55.4,16,75,22.37,300
602,1314,Nago,jp,26.59,127.98,81.21,88,90,16.11,220
603,407,Macusani,pe,-14.07,-70.43,44.92,94,56,1.7,219
