,index,City Name,Country Code,Latitude,Longitude,Temperature,Humidity,Cloudiness,Wind-Speed,Wind-Direction
0,471,Tarauaca,br,-8.16,-70.77,88.18,57,0,5.28,146.503
1,617,Salinas,ec,0.49,-78.13,59.74,80,80,1.25,76.003
2,1290,Awbari,ly,26.59,12.77,94.12,14,0,8.41,32.503
3,7,Port Elizabeth,za,-33.92,25.57,55.4,87,0,9.64,69.003
4,64,General Roca,ar,-39.03,-67.58,59,58,0,2.24,230
5,1722,Torrington,us,42.06,-104.18,79.07,50,1,4.16,99.003
6,2140,Chernenko,ru,44.37,39.31,71.26,52,0,10.76,79.503
7,400,Luganville,vu,-15.51,167.18,74.23,100,92,16.35,133.003
8,1239,La Paz,mx,24.15,-110.32,93.2,17,5,4.5,301.003
9,1944,Saint-Ambroise,ca,48.56,-71.32,60.58,50,20,11.41,350
10,1650,Dongsheng,cn,29.72,112.52,70.54,71,48,11.65,2.50296
11,2059,Claremorris,ie,53.72,-9,66.2,55,90,11.41,80
12,695,Muisne,ec,0.61,-80.02,81.97,87,64,4.16,200.003
13,832,Ikom,ng,5.96,8.72,75.67,90,64,4.16,137.503
14,1750,Zhanaozen,kz,43.35,52.85,78.91,26,12,22.95,0.00296021
15,2450,Longyearbyen,sj,78.22,15.64,32,89,40,14.99,280
16,2147,Taksimo,ru,56.36,114.84,42.01,78,8,2.37,114.003
17,1062,Bajil,ye,15.06,43.29,87.55,53,36,3.6,308.003
18,1780,Berlin,us,41.62,-72.75,85.68,43,20,8.05,220
19,2015,Ripky,ua,51.8,31.09,62.89,38,0,12.1,102.003
20,225,Aranos,na,-24.14,19.11,56.5,28,0,2.48,320.503
21,1529,Garmsar,ir,35.22,52.34,64.51,48,0,3.27,311.503
22,2022,Matveyevka,ru,54.92,83.08,44.6,93,90,8.95,10
23,2047,Burns Lake,ca,54.23,-125.76,45.88,56,76,4.61,220.003
24,1243,Key West,us,47.93,-96.78,82,39,1,13.87,300
25,1710,Vrangel,ru,42.73,133.08,47.86,96,44,4.16,287.003
26,892,Port Blair,in,11.67,92.75,79.9,100,80,12.44,164.503
27,234,Emerald,au,-23.53,148.16,58.48,74,0,9.64,113.003
28,793,Bosobolo,cd,4.19,19.88,76.93,85,68,8.63,187.003
29,1387,Zabol,ir,31.03,61.49,84.2,13,0,6.93,360
30,1351,Tongzi,cn,28.78,105.09,63.16,89,44,2.93,287.003
31,1714,Port Hardy,ca,50.7,-127.42,50,93,90,6.93,100
32,2300,Rindal,no,63.05,9.21,55.06,64,8,2.59,7.50296
33,638,Lamu,ke,-2.27,40.9,80.08,89,92,17.25,177.003
34,2294,Fairbanks,us,64.84,-147.72,50.59,66,1,4.38,268.503
35,2263,Forssa,fi,60.82,23.63,69.8,40,0,6.93,320
36,274,Mayor Pablo Lagerenza,py,-19.93,-60.77,92.14,35,0,13.22,19.003
37,2391,Batagay-Alyta,ru,67.8,130.41,31.39,78,8,2.71,12.503
38,931,Ponnani,in,10.77,75.93,80.6,83,75,5.82,200
39,2352,Muravlenko,ru,63.79,74.5,22.48,75,8,6.4,198.503
40,526,Kilindoni,tz,-7.91,39.67,79.72,100,56,11.88,151.003
41,271,Iquique,cl,-20.22,-70.14,64.4,63,75,9.17,270
42,372,Santa Lucia,pe,-15.7,-70.61,59,38,0,9.17,50
43,802,Male,mv,4.17,73.51,84.2,83,75,16.11,270
44,509,Porto Velho,br,-8.75,-63.87,89.6,52,75,8.05,140
45,204,Xai-Xai,mz,-25.04,33.64,73.51,99,0,11.99,147.003
46,484,Saurimo,ao,-9.66,20.4,70.63,47,24,5.17,158.503
47,1757,Yining,cn,29.04,114.56,71.26,99,100,2.71,324.503
48,516,Gamba,ga,-2.72,10.02,77.56,100,88,8.63,204.503
49,1404,Severo-Kurilsk,ru,50.68,156.12,35.26,100,88,9.31,77.003
50,156,Cordoba,ar,-27.78,-67.24,67.93,23,0,2.04,163.503
51,1419,Torbay,ca,47.66,-52.73,46.4,87,90,10.29,300
52,897,Balabac,ph,7.99,117.06,85.84,100,32,7.63,86.503
53,2019,Tatishchevo,ru,51.67,45.59,55.4,35,0,8.95,20
54,1219,Keti Bandar,pk,24.14,67.45,85.93,95,0,19.48,266.503
55,748,Monrovia,lr,6.33,-10.8,80.6,83,40,8.05,200
56,1502,Bullhead City,us,35.15,-114.57,78.85,21,1,11.41,160
57,1186,Dhule,in,20.9,74.77,90.88,32,0,10.65,286.003
58,88,Santa Rosa,ar,-36.62,-64.29,68.74,49,24,7.29,318.503
59,244,Tartagal,ar,-22.52,-63.8,77,57,0,9.17,60
60,2393,Batagay,ru,67.65,134.64,39.67,75,0,3.83,344.003
61,2032,Toora-Khem,ru,52.47,96.11,35.26,96,80,2.26,207.503
62,1073,Uthai Thani,th,15.37,100.05,82.24,74,48,6.85,178.003
63,2134,Makushino,ru,55.21,67.25,43.18,85,88,14.45,21.003
64,224,Maltahohe,na,-24.83,16.98,58.84,31,0,8.19,270.003
65,1310,Shaoyang,cn,27.23,111.45,71.89,97,92,4.05,21.503
66,1177,Tessalit,ml,20.2,1.01,104.65,7,68,6.17,158.003
67,2023,Krasnoyarskiy,ru,51.97,59.9,41.92,70,56,21.83,21.503
68,952,Santa Marta,co,11.24,-74.21,87.8,74,20,11.41,270
69,176,Santiago Del Estero,ar,-27.8,-64.26,77.56,49,0,20.38,17.503
70,145,Port Augusta,au,-32.49,137.76,68,42,92,11.41,340
71,2161,Paamiut,gl,61.99,-49.67,34.54,100,92,12.44,274.503
72,161,Vila Velha,br,-3.71,-38.6,82.4,78,75,9.17,100
73,2183,Novouralsk,ru,57.25,60.1,36.88,49,0,3.27,340.503
74,625,Mocajuba,br,-2.58,-49.5,86.92,71,8,3.04,89.503
75,1026,Bang Phae,th,13.69,99.93,81.61,81,48,4.72,194.003
76,1993,Outlook,ca,51.48,-107.04,80.98,45,24,13.33,167.003
77,1428,Surt,ly,31.21,16.59,69.82,90,0,8.75,22.503
78,621,Tonantins,br,-2.86,-67.77,82.87,84,68,3.49,250.503
79,689,Sorong,id,-0.86,131.25,79.9,100,48,3.6,158.503
80,1413,Corsicana,us,32.09,-96.46,87.4,62,75,3.36,170
81,1736,Canillo,ad,42.57,1.6,63.7,39,8,4.5,174.503
82,1744,Eregli,tr,37.51,34.05,58.93,85,12,2.59,121.003
83,542,Canutama,br,-6.53,-64.38,83.59,82,32,3.38,126.503
84,2009,Steinheim,de,51.87,9.09,78.8,36,48,5.82,80
85,2129,Stolbishche,ru,52.59,35.29,54.52,60,0,7.96,99.503
86,605,Tambun,id,-6.26,107.07,80.6,88,20,5.82,210
87,1459,Portales,us,34.19,-103.33,82.4,20,1,9.17,240
88,2091,Verkh-Usugli,ru,52.7,115.17,48.76,98,92,2.71,37.503
89,920,Mubi,ng,10.27,13.26,80.53,66,0,2.48,232.503
90,46,Saldanha,za,-33.01,17.94,56.32,95,0,5.61,207.503
91,415,Conde,br,-11.81,-37.61,78.55,88,92,12.66,135.503
92,132,Valparaiso,cl,-33.04,-71.63,55.6,71,75,4.7,40
93,806,Limbang,my,4.75,115,81.07,100,75,1.12,100
94,2148,Chara,ru,56.9,118.26,35.08,65,0,2.04,149.503
95,620,Puerto Narino,co,-3.77,-70.38,82.4,83,75,8.05,240
96,442,Riberalta,bo,-11,-66.08,87.8,55,40,2.93,159.503
97,534,Kokoda,pg,-8.88,147.74,61.18,96,44,1.92,35.503
98,118,Durazno,uy,-33.38,-56.52,68,64,0,9.17,10
99,287,Morondava,mg,-20.3,44.28,80.62,72,0,8.41,230.503
100,734,Esmeraldas,ec,-1.87,-79.8,82.4,61,40,8.05,250
101,22,Chuy,uy,-33.69,-53.46,66.94,75,0,11.54,21.503
102,921,Bousso,td,10.48,16.71,84.49,72,36,2.37,320.503
103,270,Lima,pe,-12.06,-77.04,69.46,64,0,2.93,205.503
104,352,Mocuba,mz,-16.84,36.99,73.42,60,0,5.73,129.003
105,2234,Lokosovo,ru,61.13,74.84,31.21,67,20,3.94,309.003
106,1508,Russellville,us,35.28,-93.13,78.8,78,40,3.04,340.003
107,2160,Iqaluit,ca,63.75,-68.52,26.6,68,90,19.46,320
108,659,Manta,ec,-0.95,-80.73,82.4,65,90,4.7,190
109,1891,Harbour Breton,ca,47.48,-55.8,45.16,95,36,0.81,183.503
110,1464,Jacksonville,us,30.33,-81.66,83.66,66,40,13.87,140
111,1416,Eufaula,us,31.89,-85.15,84.58,58,40,4.7,90
112,1214,Clarence Town,bs,23.1,-74.98,80.44,95,92,18.48,123.003
113,1918,Bulgan,mn,48.81,103.53,47.77,39,48,7.18,332.503
114,1862,Altay,cn,47.83,88.13,32.92,73,0,2.71,56.503
115,763,Muli,mv,2.92,73.57,83.32,100,56,19.48,262.003
116,392,Maroantsetra,mg,-15.43,49.74,70.72,100,100,6.17,159.003
117,312,Conceicao Da Barra,br,-18.59,-39.73,75.85,91,0,15.01,147.003
118,1418,Havelock,us,34.88,-76.9,81.54,88,75,6.93,80
119,2388,Svetlogorsk,ru,53.14,59.15,41,56,75,11.18,360
120,1919,Ulaanbaatar,mn,47.92,106.92,41,41,0,4.5,311.003
121,1246,Tiznit,ma,29.7,-9.73,63.16,85,68,8.19,300.003
122,488,Karonga,mw,-9.94,33.93,76.03,100,0,10.98,148.503
123,1939,Beausejour,ca,50.06,-96.51,69.8,73,20,9.17,320
124,279,Sao Jose Do Calcado,br,-21.03,-41.65,70.09,75,92,5.06,90.503
125,1880,Boissevain,ca,49.23,-100.06,80.6,36,1,16.11,290
126,546,Sao Raimundo Das Mangabeiras,br,-7.02,-45.48,93.58,28,0,11.65,117.003
127,55,Ancud,cl,-41.87,-73.83,53.62,66,88,5.39,294.503
128,862,Garachine,pa,8.06,-78.36,79.36,100,80,11.99,171.003
129,525,Utete,tz,-7.99,38.76,77.29,72,0,5.39,132.503
130,528,Banjar,id,-7.37,108.54,71.08,98,68,2.59,212.503
131,675,Boende,cd,-0.28,20.88,72.25,93,88,2.26,11.503
132,668,Candido Mendes,br,-1.45,-45.72,83.14,99,24,10.65,57.003
133,856,Bolila,ph,6.37,125.57,76.48,100,76,2.26,329.503
134,1024,Yanam,in,16.73,82.22,84.04,85,36,5.06,155.003
135,1975,Ust-Koksa,ru,50.27,85.62,34.54,93,0,1.92,170.003
136,1082,Lahaina,us,20.87,-156.68,71.71,88,75,14.99,60
137,449,Entre Rios,br,-11.94,-38.08,78.55,88,92,12.66,135.503
138,14,Hobart,au,-42.88,147.33,39.2,93,20,8.05,310
139,1679,Santa Marta De Tormes,es,40.95,-5.63,64.4,55,20,6.93,300
140,2194,Chunskiy,ru,56.08,99.63,47.5,82,44,2.26,179.503
141,1037,Los Amates,gt,15.26,-89.1,83.68,58,24,2.59,358.503
142,80,Sale,au,-38.11,147.06,42.91,100,20,2.59,355.003
143,1410,Puerto Palomas,mx,31.77,-107.62,84.2,13,1,9.17,200
144,2289,Dukat,ru,62.55,155.55,29.86,92,76,4.16,162.503
145,2214,Lerwick,gb,60.15,-1.15,52.7,76,0,14.99,70
146,1946,Havre-Saint-Pierre,ca,50.23,-63.6,41,93,90,6.93,270
147,649,Manokwari,id,-0.87,134.08,83.14,99,36,2.59,157.503
148,487,Kasama,zm,-10.21,31.19,76.21,37,88,8.52,101.003
149,275,Bonito,br,-1.36,-47.3,82.15,100,56,7.85,62.503
150,1169,Izamal,mx,20.93,-89.02,86.9,70,75,5.82,20
151,2444,Qaanaaq,gl,77.48,-69.36,22.21,100,8,3.94,43.503
152,424,Nacala,mz,-14.56,40.69,81.43,87,0,8.41,162.003
153,860,Parrita,cr,9.52,-84.33,78.8,47,75,3.36,310
154,693,Lazaro Cardenas,mx,28.39,-105.62,91.4,19,20,5.82,50
155,52,Te Anau,nz,-45.41,167.72,35.26,95,92,3.6,243.003
156,87,Coihueco,cl,-36.63,-71.83,48.2,100,90,14.99,50
157,1302,Gwalior,in,26.2,78.16,83.32,38,8,2.04,300.003
158,2253,Norman Wells,ca,65.28,-126.83,46.96,64,92,4.61,327.003
159,2208,High Level,ca,58.52,-117.13,53.6,71,90,11.41,270
160,1341,Khanpur,pk,28.65,70.66,81.16,21,0,5.5,278.503
161,1682,Tempio Pausania,it,40.9,9.1,76.06,38,0,9.17,110
162,1630,Cagliari,it,46.38,10.88,67.55,48,20,11.41,160
163,174,Pisco,pe,-13.71,-76.2,66.2,88,90,8.05,330
164,2179,Krasnyye Baki,ru,57.13,45.16,53.98,46,0,5.84,242.003
165,1615,Columbia,us,38.95,-92.33,84.07,55,1,6.93,210
166,754,Gemena,cd,3.25,19.78,71.71,96,80,2.93,157.003
167,1277,Sabinas Hidalgo,mx,26.51,-100.18,95.11,36,0,4.16,119.003
168,1746,Shepsi,ru,44.04,39.15,73.51,90,0,4.61,48.503
169,1932,Lillooet,ca,50.69,-121.94,64.4,34,1,17.22,180
170,451,Sao Jose Da Coroa Grande,br,-8.9,-35.15,78.46,94,88,9.31,124.503
171,1949,Bonavista,ca,48.65,-53.11,40.21,94,8,7.96,58.003
172,126,Carnarvon,au,-24.87,113.63,66.49,100,0,9.64,152.003
173,2267,Lipin Bor,ru,60.26,37.97,66.58,57,32,13.78,261.003
174,2318,Novoagansk,ru,61.94,76.66,31.84,62,64,3.94,324.003
175,2329,Myaundzha,ru,63.05,147.18,35.71,88,48,3.49,73.503
176,2345,Koslan,ru,63.46,48.9,62.89,46,32,9.53,303.003
177,1379,Ajdabiya,ly,30.75,20.22,77.83,54,0,14.23,307.003
178,1028,Lumphat,kh,13.5,106.97,77.02,96,92,2.15,126.503
179,2297,Klaksvik,fo,62.23,-6.59,50,76,8,8.05,150
180,325,Kununurra,au,-15.77,128.74,62.6,77,0,4.7,220
181,2108,Bonnyville,ca,54.27,-110.74,62.6,72,75,10.29,310
182,2247,Solnechnyy,ru,50.72,136.64,38.05,68,0,3.94,249.503
183,1745,Sinop,tr,42.03,35.15,68.2,93,36,5.73,303.503
184,2417,Pevek,ru,69.7,170.27,26.08,89,8,2.93,93.503
185,501,Merauke,id,-8.49,140.4,80.17,87,76,16.02,119.503
186,650,Vanimo,pg,-2.67,141.3,82.69,100,8,6.96,110.003
187,1371,Lakeside,us,37.61,-77.48,84.2,62,40,12.75,240
188,2187,Tara,ru,56.9,74.37,41.83,61,88,6.17,28.503
189,1365,San Buenaventura,mx,27.06,-101.55,93.2,36,20,3.94,78.003
190,2133,Mishkino,ru,56.22,46.62,51.8,40,0,8.95,260
191,258,Ihosy,mg,-22.4,46.13,55.69,89,0,2.59,154.003
192,47,Plettenberg Bay,za,-34.05,23.37,61.72,98,0,15.35,90.503
193,1421,Canico,pt,32.63,-16.85,64.15,55,40,10.29,360
194,103,Veinticinco De Mayo,ar,-27.38,-54.75,77.65,59,24,6.17,357.003
195,194,Yegros,py,-26.46,-56.4,80.53,59,0,4.72,43.503
196,1338,Baft,ir,29.23,56.61,52.81,31,44,2.93,192.503
197,17,Cape Town,za,-33.93,18.42,57.2,82,0,2.24,160
198,1454,Sukumo,jp,32.94,132.72,55.69,84,0,2.82,49.003
199,1636,Emirdag,tr,39.02,31.15,54.25,100,92,3.15,249.503
200,1713,Shizunai,jp,42.33,142.37,39.04,95,20,6.29,341.503
201,278,Boa Esperanca,br,-1.91,-60,86.02,71,12,2.59,12.003
202,1027,Sisophon,kh,13.59,102.97,78.46,87,24,5.17,208.003
203,333,Atuona,pf,-9.8,-139.03,80.44,100,12,12.44,123.503
204,2298,Floro,no,61.6,5.03,68,52,0,9.17,330
205,1283,High Rock,bs,26.63,-78.28,77,88,90,20.49,121.003
206,1575,Poros,gr,40.11,21.53,77,41,20,4.16,353.503
207,1577,Bucak,tr,37.46,30.59,65.68,93,75,2.24,210
208,2056,Moose Factory,ca,51.26,-80.61,46.4,61,1,10.29,80
209,2195,Rudnogorsk,ru,57.27,103.75,41.92,74,0,6.96,177.003
210,1437,Ravar,ir,31.27,56.81,75.49,19,76,2.15,76.003
211,753,Nola,cf,3.52,16.05,75.58,98,88,2.04,354.003
212,408,San Ramon,bo,-13.27,-64.62,86.79,58,20,6.93,160
213,121,Robertson,za,-33.8,19.88,45.88,90,0,2.37,165.003
214,2238,Teguldet,ru,57.31,88.17,39.85,98,92,3.6,7.50296
215,2237,Belyy Yar,ru,53.6,91.39,55.4,87,0,8.95,160
216,0,Vaini,to,-21.2,-175.2,75.2,78,75,12.75,160
217,363,Bowen,au,-20.01,148.25,66.2,88,75,9.17,160
218,934,Batticaloa,lk,7.71,81.69,77.29,100,80,4.38,110.503
219,911,Rio Claro,tt,10.31,-61.18,82.4,83,40,11.41,110
220,2222,Ryabovo,ru,60.34,28.99,66.04,40,0,5.61,233.503
221,905,Bocas Del Toro,pa,9.33,-82.25,82.33,100,0,6.4,355.503
222,1227,Mogok,mm,22.92,96.51,69.46,95,76,1.92,171.003
223,492,Victoria,sc,-4.62,55.45,82.4,83,75,8.05,130
224,1849,Novooleksiyivka,ua,48.49,32.24,61.81,46,0,14.23,77.003
225,2273,Polunochnoye,ru,60.87,60.43,43.81,58,76,6.96,247.003
226,637,Wundanyi,ke,-3.4,38.37,69.19,82,76,7.74,158.503
227,2060,Skerries,ie,53.58,-6.11,61.86,63,75,13.87,40
228,566,Galesong,id,-5.32,119.37,78.8,94,48,3.36,190
229,1622,Halifax,ca,44.65,-63.58,60.8,93,90,11.41,350
230,2181,Igra,ru,57.55,53.1,49.84,53,48,6.73,274.003
231,2341,Kostomuksha,ru,64.59,30.6,59.65,21,76,9.31,324.003
232,761,Jawhar,so,2.78,45.5,80.89,71,64,13.11,206.003
233,1312,Sanming,cn,26.24,117.6,76.93,83,44,2.04,217.003
234,1272,Xiamen,cn,24.46,118.07,84.2,83,0,2.24,20
235,2162,Qaqortoq,gl,60.72,-46.03,35.6,69,75,14.99,190
236,1729,Batavia,us,43,-78.19,78.37,51,90,8.05,300
237,1749,Derbent,ru,42.06,48.29,57.22,99,100,7.07,348.503
238,1973,Semey,kz,50.41,80.25,71.53,34,8,14.23,166.003
239,1785,Figeac,fr,44.61,2.03,75.27,43,0,20.8,120
240,2050,Barrhead,ca,54.12,-114.4,62.71,39,0,16.46,299.503
241,1875,Grand Forks,ca,49.03,-118.46,69.8,35,20,6.93,10
242,562,Pringsewu,id,-5.36,104.98,74.86,95,32,0.92,68.503
243,215,Salta,ar,-24.79,-65.41,65.43,52,40,3.94,76.003
244,1091,Barahona,do,18.21,-71.1,86,66,75,18.34,130
245,830,Come,bj,6.41,1.88,80.6,83,40,12.75,190
246,1218,Riyadh,sa,24.63,46.72,95,18,0,8.05,100
247,12,Albany,au,-35.02,117.88,58.84,94,88,17.25,290.503
248,1754,Taraz,kz,42.89,71.39,73.4,35,0,11.18,190
249,539,Contamana,pe,-7.35,-75.01,86.92,62,32,3.04,150.003
250,1453,Fukue,jp,35.03,136.69,62.6,100,20,8.05,350
251,1025,Dawei,mm,14.07,98.19,75.31,94,56,2.15,113.003
252,1796,Ivanovskoye,ru,51.61,34.94,57.94,45,0,12.55,90.003
253,1485,Panjab,af,34.38,67.02,37.06,78,48,3.15,36.503
254,158,Quarai,br,-30.39,-56.45,74.77,60,8,9.64,27.003
255,2428,Kamenka,ru,53.19,44.05,50.74,45,0,6.85,40.503
256,1034,San Policarpo,ph,12.18,125.51,82.96,93,88,7.74,81.503
257,640,Mogadishu,so,2.04,45.34,80.08,100,80,20.27,208.503
258,647,Kualakapuas,id,-3.01,114.39,76.39,92,44,2.37,95.003
259,2035,Ivolginsk,ru,51.75,107.28,44.6,65,32,8.95,270
260,1412,San Angelo,us,31.46,-100.44,91.4,43,1,12.75,180
261,1601,Wajima,jp,37.4,136.9,56.59,92,0,8.19,60.003
262,2211,Stornoway,gb,58.21,-6.39,57.2,76,0,4.7,50
263,1131,Frontera,mx,18.53,-92.64,87.8,58,75,8.05,270
264,1621,Shelburne,ca,44.08,-80.2,79.9,51,1,11.41,170
265,102,General Pico,ar,-35.66,-63.75,70.18,38,8,9.98,7.00296
266,559,Lugoba,tz,-6.46,38.33,73.24,92,76,2.93,183.503
267,1146,Porbandar,in,21.64,69.61,84.4,81,0,14.9,301.503
268,1281,Saint Pete Beach,us,27.73,-82.74,76.55,94,90,26.4,180
269,536,Auki,sb,-8.77,160.7,76.84,100,92,3.15,114.003
270,267,Koumac,nc,-20.56,164.28,67.39,100,92,9.98,95.503
271,27,Dunedin,nz,-45.87,170.5,39.4,93,56,15.57,238.003
272,1220,Wankaner,in,22.62,70.95,87.8,62,0,12.75,290
273,1607,South Yuba City,us,39.12,-121.64,61.59,77,90,1.59,145.003
274,361,Mareeba,au,-16.99,145.42,69.8,88,40,10.29,150
275,2357,Borogontsy,ru,62.67,131.17,54.7,56,0,2.37,359.003
276,859,San Jose,gt,16.98,-89.9,86.02,78,12,3.71,248.003
277,2287,Kholodnyy,ru,62.72,147.95,30.85,87,36,3.94,56.003
278,150,Ballina,au,-28.87,153.57,66.49,100,92,6.73,145.503
279,519,Camabatela,ao,-8.19,15.37,69.91,75,56,2.37,163.003
280,1160,Hirara,jp,24.8,125.28,81.88,96,44,8.75,225.003
281,1005,Kongoussi,bf,13.32,-1.53,95.74,29,80,9.64,167.003
282,199,Bethanien,na,-26.5,17.16,57.04,26,0,5.73,258.503
283,1324,Auburndale,us,28.07,-81.79,79.99,94,90,15.79,117.503
284,344,Prado,br,-17.34,-39.22,78.01,97,64,20.83,142.503
285,1361,Isla Vista,us,34.41,-119.86,62.98,59,1,11.41,280
286,1320,Port Lavaca,us,28.61,-96.63,89.04,58,75,3.36,190
287,2327,Dzhebariki-Khaya,ru,62.22,135.8,54.25,51,0,5.5,9.00296
288,281,Otjiwarongo,na,-20.46,16.65,68,30,0,7.4,100.003
289,1570,Timizart,dz,36.8,4.25,84.76,25,56,5.06,172.003
290,2343,Lukovetskiy,ru,64.29,41.92,55.4,50,0,6.71,320
291,1625,Ventosa,pt,39.12,-9.09,68.09,72,20,9.17,320
292,1892,Catalina,ca,48.52,-53.08,35.8,98,48,7.4,57.503
293,1397,Fuling,cn,29.71,107.39,61.99,100,100,3.71,240.503
294,1519,San Lawrenz,mt,36.06,14.2,75.2,64,0,5.82,40
295,760,Mandera,ke,3.94,41.87,84.13,56,100,11.88,188.503
296,2021,Tashla,ru,53.71,49.75,50,37,0,8.95,350
297,483,Malanje,ao,-9.54,16.35,73.06,54,76,3.71,107.003
298,985,Ransang,ph,8.96,117.58,80.98,97,32,2.82,140.503
299,298,Neiafu,to,-18.65,-173.98,73.4,94,75,12.21,129.503
300,56,San Carlos De Bariloche,ar,-41.13,-71.31,46.4,65,75,19.46,290
301,1336,Bayan,kw,29.3,48.05,96.8,18,0,3.36,70
302,429,Denpasar,id,-8.65,115.22,71.89,100,88,2.37,149.503
303,1483,Tabas,ir,33.6,56.92,69.19,22,20,2.48,23.003
304,2067,Ostroda,pl,53.7,19.96,61.09,100,92,8.52,123.003
305,1561,Mastic Beach,us,40.77,-72.85,79.36,69,40,9.17,210
306,1197,Shenzhen,cn,22.54,114.05,84.69,74,20,9.17,210
307,1542,Qingdao,cn,36.09,120.35,64.4,68,0,8.95,170
308,2028,Pospelikha,ru,51.99,81.83,67.12,51,48,18.03,190.503
309,968,Dourbali,td,11.81,15.86,84.49,83,0,1.92,216.003
310,574,Panguna,pg,-6.32,155.48,72.16,89,20,2.93,58.003
311,1733,Muros,es,42.77,-9.06,57.2,93,75,8.05,360
312,1440,Chaman,pk,30.92,66.45,56.32,23,0,4.94,235.003
313,610,Madang,pg,-5.21,145.81,73.06,100,92,4.38,223.003
314,1572,Campobello Di Mazara,it,37.64,12.74,71.67,88,0,4.7,30
315,1291,Sabha,ly,27.03,14.43,93.94,12,0,13.78,12.003
316,2038,Gazimurskiy Zavod,ru,51.55,118.33,49.57,85,92,11.65,126.003
317,1155,Pakxan,la,18.39,103.66,72.88,99,92,1.81,335.003
318,1035,Tomatlan,mx,19.93,-105.25,86.29,58,0,3.83,223.003
319,613,Buala,sb,-8.15,159.59,80.44,96,92,4.72,90.003
320,36,Rio Gallegos,ar,-51.62,-69.22,50,46,75,31.09,270
321,135,Rio Tercero,ar,-32.17,-64.11,70.54,48,0,13.22,19.003
322,290,Saint-Paul,re,-21.01,55.27,71.64,73,0,4.7,140
323,308,Cassilandia,br,-19.11,-51.73,82.06,54,0,9.75,56.003
324,888,Kavaratti,in,10.57,72.64,82.96,100,68,20.83,319.503
325,690,Biak,id,-0.91,122.88,76.12,100,68,2.93,221.503
326,179,Braco Do Norte,br,-28.27,-49.17,69.73,81,0,3.6,48.003
327,1990,Revelstoke,ca,50.99,-118.19,69.8,35,1,9.17,350
328,1099,Kidal,ml,18.44,1.41,105.01,10,0,4.94,170.503
329,490,Madimba,tz,-10.4,40.33,80.08,100,68,13.11,157.503
330,6,Bredasdorp,za,-34.53,20.04,55.4,87,0,2.24,100
331,1950,Nanortalik,gl,60.14,-45.24,33.46,95,88,19.71,268.003
332,1677,Peniche,pt,39.36,-9.38,66.83,72,20,9.17,320
333,1493,Zhoukou,cn,33.63,114.64,70,59,24,9.98,300.503
334,903,Corinto,ni,12.48,-87.17,82.4,78,75,4.7,200
335,1980,Nizhniy Tsasuchey,ru,50.52,115.13,43.45,98,92,20.83,322.003
336,245,Filadelfia,py,-22.35,-60.04,88.81,40,0,13.78,28.503
337,2176,Krasnomayskiy,ru,55,82.52,44.6,93,90,8.95,10
338,1078,Bolitoc,ph,15.74,119.88,77.56,100,32,4.16,110.003
339,2033,Orlik,ru,52.51,99.83,34.09,90,88,2.37,283.503
340,115,San Luis,ar,-33.3,-66.34,71.53,44,8,11.99,329.503
341,294,Mackay,au,-21.15,149.2,66.2,88,75,10.29,160
342,72,Gisborne,nz,-38.66,178.02,51.01,75,36,14.45,277.503
343,1080,Pandan,ph,11.72,122.09,85.12,100,80,13.33,84.003
344,1206,Kahului,us,20.89,-156.47,69.75,88,75,14.99,60
345,1821,Belgrade,us,45.77,-111.18,66.42,63,1,6.93,300
346,1705,Zhangjiakou,cn,40.77,114.88,47.41,46,0,4.72,269.503
347,1389,Mach,pk,29.87,67.33,70.99,11,0,7.74,308.003
348,1427,Yafran,ly,32.06,12.53,78.46,23,8,6.17,8.50296
349,2086,Karatuzskoye,ru,53.61,92.87,50.92,89,8,5.17,166.003
350,684,Pontianak,id,-0.02,109.34,78.73,100,32,2.37,351.003
351,1763,Dongfeng,cn,42.67,125.53,59.11,100,92,3.94,226.003
352,2364,Sisimiut,gl,66.94,-53.67,32.11,97,88,2.37,288.003
353,58,Puerto Madryn,ar,-42.77,-65.04,60.82,64,88,14.45,245.003
354,1000,Dakar,sn,14.69,-17.45,73.4,78,0,9.17,340
355,714,Basoko,cd,1.23,23.61,71.98,96,92,4.16,296.003
356,1914,Balkhash,kz,46.84,74.98,62.08,75,0,3.94,65.003
357,1676,Lagoa,pt,37.14,-8.45,66.2,82,40,11.41,250
358,2039,Tahe,cn,52.34,124.71,40.21,87,0,2.37,95.003
359,2141,Ovsyanka,ru,53.58,126.91,44.62,81,0,2.37,28.503
360,2389,Udachnyy,ru,66.42,112.4,41.83,82,32,7.74,111.003
361,514,Serra Talhada,br,-7.99,-38.29,88.18,33,8,11.88,146.003
362,743,Salinopolis,br,-0.61,-47.36,81.88,100,56,11.77,54.003
363,265,Moranbah,au,-22,148.04,63.52,73,88,14.23,119.503
364,2382,Usinsk,ru,66,57.56,44.89,100,92,11.77,255.503
365,2018,Ternovka,ru,51.69,41.59,55.06,38,0,9.64,51.503
366,1576,Bodrum,tr,37.04,27.43,67.12,88,75,4.7,30
367,725,Sri Aman,my,1.24,111.46,77,94,100,2.37,345.503
368,1632,Cosenza,it,39.31,16.25,71.6,83,20,5.82,260
369,1859,Ushtobe,kz,45.25,77.98,57.76,56,0,3.38,47.003
370,2144,Vidim,ru,56.41,103.11,39.76,80,8,5.39,167.003
371,1730,Gloversville,us,43.05,-74.34,83.5,45,1,4.7,290
372,850,Kuala Terengganu,my,5.33,103.14,82.96,100,44,2.15,335.503
373,2321,Tura,ru,64.27,100.22,39.04,97,88,5.17,277.003
374,1804,Saryozek,kz,44.36,77.98,52.45,58,0,2.59,39.503
375,303,Arica,cl,-18.48,-70.32,68,60,75,3.36,200
376,1211,Mantua,cu,22.29,-84.28,77.38,98,92,9.53,173.003
377,1121,Wanning,cn,18.8,110.4,85.03,98,0,10.87,207.503
378,1360,Half Moon Bay,us,37.46,-122.43,56.61,82,90,11.41,320
379,1590,Shache,cn,38.42,77.24,50.74,52,0,3.38,196.003
380,2204,Arman,ru,59.7,150.17,31.39,99,44,2.82,97.503
381,2308,Onega,ru,63.91,38.09,57.04,51,56,15.35,340.003
382,2191,Tyukhtet,ru,56.54,89.31,45.79,100,92,7.74,15.003
383,1878,Gravelbourg,ca,49.88,-106.56,83.68,35,44,8.41,178.003
384,233,Roebourne,au,-20.77,117.15,62.08,56,0,11.21,175.503
385,1684,Gravina In Puglia,it,40.82,16.42,77.14,64,0,6.93,10
386,353,Angoche,mz,-16.23,39.91,81.7,99,0,8.75,163.003
387,2030,Tashtyp,ru,52.8,89.89,52.54,76,12,4.94,206.503
388,794,Rafai,cf,4.95,23.92,74.86,89,80,4.94,185.003
389,480,Tamandare,br,-8.28,-70.75,88.18,57,0,5.28,146.503
390,2223,Khvoynaya,ru,58.9,34.53,62.71,56,68,6.62,246.503
391,1933,Nakusp,ca,50.24,-117.8,63.25,34,0,1.81,261.003
392,699,Santa Isabel Do Rio Negro,br,-0.41,-65.02,82.96,83,76,4.61,357.503
393,1977,Kholtoson,ru,50.3,103.31,30.67,79,0,3.15,285.003
394,1455,Pacifica,us,37.61,-122.49,57.65,82,90,11.41,320
395,1728,Glencoe,ca,42.75,-81.71,74.66,69,90,3.36,150
396,304,Challapata,bo,-18.9,-66.78,47.86,41,0,5.84,272.003
397,375,Pontes E Lacerda,br,-15.23,-59.33,86.38,68,0,4.38,97.503
398,418,Luena,ao,-11.78,19.91,67.84,47,36,6.17,151.003
399,1811,Hailin,cn,44.57,129.38,50.02,89,68,2.37,91.503
400,380,Sao Joao Do Paraiso,br,-15.31,-42.01,75.49,55,0,12.21,123.003
401,1511,Smithfield,us,41.92,-71.55,85.05,54,75,9.17,160
402,580,Coari,br,-4.09,-63.14,85.39,75,56,4.72,56.503
403,1591,Aksu,cn,41.12,80.26,44.35,59,0,3.38,342.003
404,255,Pilikwe,bw,-22.8,27.19,61.18,56,8,5.28,77.503
405,1101,Agadez,ne,16.97,7.99,100.4,29,20,19.46,240
406,1347,Tawang,in,27.58,91.87,47.95,99,92,1.14,54.503
407,823,Totness,sr,5.88,-56.32,78.91,100,48,12.44,51.003
408,2320,Turukhansk,ru,65.8,87.96,27.79,94,88,9.98,265.003
409,2174,Balvi,lv,57.13,27.27,67.39,71,8,4.38,160.503
410,1144,Arlit,ne,18.74,7.39,100.42,10,32,2.82,94.003
411,667,Soure,br,-0.72,-48.52,82.51,94,32,6.4,58.003
412,1452,Huilong,cn,31.15,106.5,62.35,79,56,5.73,6.00296
413,1852,Yashkul,ru,46.17,45.34,62.89,23,0,15.79,46.503
414,671,Takoradi,gh,4.89,-1.75,77.74,100,88,7.63,227.003
415,1086,Amatan,mx,17.37,-92.82,76.39,78,44,1.92,316.003
416,1604,Kamaishi,jp,39.28,141.86,50.92,85,76,3.15,8.50296
417,1755,Kant,kg,42.89,74.85,39.94,63,12,1.81,182.003
418,1191,Teknaf,bd,20.86,92.31,80.26,86,8,1.92,125.003
419,612,Kieta,pg,-6.22,155.63,78.64,100,56,3.6,163.503
420,1345,Kathmandu,np,27.71,85.32,71.6,78,20,4.7,110
421,2066,Polczyn-Zdroj,pl,53.76,16.1,66.58,84,44,2.93,60.003
422,149,Sawtell,au,-30.38,153.1,53.6,100,90,3.36,280
423,1299,Johi,pk,26.69,67.61,92.41,28,0,10.09,210.503
424,2272,Nyrob,ru,60.74,56.73,48.67,58,56,8.86,231.503
425,2189,Bakchar,ru,57.02,82.07,38.23,99,92,4.5,25.003
426,1535,Gilgit,pk,35.92,74.31,31.84,78,32,0.13,63.503
427,1122,Catuday,ph,16.29,119.81,80.89,100,20,8.3,116.003
428,1776,Traverse City,us,44.76,-85.62,79.5,51,40,3.36,170
429,1631,Terrasini,it,38.15,13.08,72.09,88,0,4.7,30
430,1642,Balkanabat,tm,39.51,54.36,81.97,28,0,4.94,282.503
431,803,Wattegama,lk,7.35,80.68,71.71,96,88,7.07,186.003
432,2216,Ulefoss,no,59.29,9.26,78.8,27,0,6.93,20
433,790,Idenao,cm,4.25,9,80.6,83,75,3.36,260
434,2013,Wlodawa,pl,51.55,23.55,71.44,56,24,11.43,106.003
435,2157,Smithers,ca,54.78,-127.17,42.64,62,80,2.59,200.003
436,151,Russell,nz,-35.26,174.12,55.51,84,36,14.23,258.503
437,2411,Naryan-Mar,ru,67.67,53.09,38.14,83,0,20.27,289.003
438,343,Carai,br,-17.19,-41.69,65.68,99,92,9.53,135.503
439,1595,Yinchuan,cn,38.48,106.21,43.81,41,0,4.83,255.003
440,598,Nguruka,tz,-5.11,31.04,75.04,55,8,4.16,123.003
441,2277,Baykit,ru,61.68,96.39,30.85,84,0,5.39,317.003
442,1354,Shangrao,cn,28.45,117.97,73.78,96,80,0.69,159.003
443,1488,Leh,in,34.16,77.58,15.73,82,76,1.7,76.503
444,476,Gilbues,br,-9.83,-45.34,91.78,29,0,13.44,108.003
445,1967,Shubarkuduk,kz,49.15,56.49,48.94,50,0,22.62,21.003
446,1674,Port Hawkesbury,ca,45.62,-61.36,50,100,90,5.82,90
447,404,Chicama,pe,-7.84,-79.15,66.2,82,75,10.29,160
448,922,Am Timan,td,11.04,20.28,82.06,61,36,3.6,277.003
449,913,Kindia,gn,10.05,-12.86,86.56,72,0,3.15,344.003
450,981,Prachuap Khiri Khan,th,11.81,99.79,75.58,92,44,1.92,272.003
451,2385,Pangody,ru,65.85,74.49,18.16,76,8,9.86,187.003
452,960,Gaoual,gn,11.75,-13.2,97.09,31,0,7.85,275.003
453,1429,Suluq,ly,31.67,20.25,73.4,73,20,25.28,360
454,1638,Malatya,tr,38.35,38.32,69.8,35,20,4.94,167.003
455,1234,Taitung,tw,22.76,121.15,77.56,100,0,4.38,268.003
456,816,Santa Cruz,cr,10.26,-85.58,78.8,94,75,5.82,80
457,1094,Santa Maria,cv,16.6,-22.9,74.19,60,75,18.34,50
458,1052,Sokolo,ml,14.74,-6.12,100.69,28,88,7.96,181.003
459,775,Makakilo City,us,21.35,-158.09,73.44,78,1,4.7,30
460,2437,Chokurdakh,ru,70.62,147.9,14.56,73,32,3.15,50.503
461,2348,Inta,ru,66.04,60.13,41.38,87,48,8.3,208.003
462,1720,Jackson,us,35.61,-88.82,82.11,69,40,4.7,150
463,1827,Merrill,us,42.03,-121.6,53.6,58,40,11.41,300
464,538,Chachapoyas,pe,-6.23,-77.87,66.13,76,80,2.93,96.503
465,2210,Nuuk,gl,64.17,-51.74,32,100,90,10.29,250
466,1731,Ipswich,us,45.44,-99.03,91.4,27,1,6.93,260
467,865,Calabozo,ve,8.92,-67.43,82.42,83,92,5.84,160.003
468,1411,Pecos,us,31.42,-103.49,99.54,13,1,4.7,60
469,549,Canguaretama,br,-6.38,-35.14,87.8,52,75,14.99,140
470,2396,Belaya Gora,ru,68.54,146.19,29.05,81,24,5.95,309.003
471,122,Willowmore,za,-33.3,23.49,41.56,86,0,1.92,40.003
472,1872,Novikovo,ru,51.15,37.89,53.8,53,0,7.96,84.003
473,781,Anapoima,co,4.55,-74.54,73.92,55,75,9.17,150
474,779,La Palma,pa,8.4,-78.14,84.04,85,88,5.95,207.003
475,443,Rodrigues Alves,br,-7.74,-72.65,86,58,20,8.05,120
476,425,Chirongui,yt,-12.93,45.15,78.8,74,40,10.29,170
477,1584,Kalaleh,ir,37.38,55.49,69.1,59,24,4.27,217.503
478,349,Maamba,zm,-17.36,27.22,61,73,8,3.27,70.503
479,1539,Yuncheng,cn,35.03,111,59.38,70,36,3.71,285.003
480,1569,Algiers,dz,36.75,3.04,69.8,77,75,5.82,350
481,284,Chiredzi,zw,-21.05,31.67,70.81,66,0,7.4,130.003
482,1540,Daokou,cn,35.61,105.12,38.77,84,24,2.71,251.503
483,1245,Los Llanos De Aridane,es,28.66,-17.92,66.2,72,40,18.34,30
484,2378,Umba,ru,66.69,34.34,51.01,54,0,15.68,311.503
485,1352,Lengshuijiang,cn,27.66,111.45,71.08,96,92,5.06,9.00296
486,2370,Bud,no,62.91,6.91,56.44,63,0,6.93,70
487,44,Waipawa,nz,-39.94,176.59,49.39,93,48,13.67,265.503
488,1567,Marchena,es,37.33,-5.42,74.23,47,20,5.82,260
489,663,Sao Gabriel Da Cachoeira,br,-0.13,-67.09,76.21,94,92,2.71,86.003
490,350,Bindura,zw,-17.3,31.33,59.74,86,8,5.06,66.003
491,243,Calama,cl,-22.46,-68.93,73.4,9,0,12.75,270
492,140,Calvinia,za,-31.47,19.78,42.01,78,0,2.59,258.003
493,1293,Tahta,eg,26.77,31.5,98.6,16,0,13.87,310
494,1783,Gijon,es,43.54,-5.66,59,93,40,16.11,300
495,1067,Londa,in,15.45,74.49,72.43,93,48,2.15,68.003
496,1077,Aloleng,ph,16.13,119.78,80.89,100,20,8.3,116.003
497,2200,Chulman,ru,56.84,124.9,43.45,71,0,3.04,191.503
498,231,Vangaindrano,mg,-23.35,47.6,64.42,95,48,3.6,4.50296
499,764,Galle,lk,6.04,80.22,77.2,100,80,9.64,221.503
500,2169,Fjerritslev,dk,57.08,9.27,67.3,61,0,9.19,10.003
501,1930,Prince Rupert,ca,54.32,-130.32,44.6,93,90,14.99,140
502,2250,Tilichiki,ru,60.47,166.1,34,97,92,3.15,141.003
503,1298,Turbat,pk,26,63.05,88.54,38,0,7.96,243.503
504,1600,Sakaiminato,jp,35.55,133.23,57.2,62,0,3.36,180
505,1226,Lunglei,in,22.89,92.75,70.9,97,80,0.92,102.003
506,2024,Esil,kz,51.96,66.41,42.46,97,92,19.82,17.503
507,180,Florianopolis,br,-27.6,-48.55,71.6,68,40,9.17,340
508,644,Prabumulih,id,-3.5,104.19,73.06,99,100,3.71,319.003
509,629,Harper,lr,4.38,-7.71,81.07,100,68,12.21,212.503
510,977,Nileshwar,in,12.25,75.1,83.77,100,36,1.92,300.003
511,2198,Bodaybo,ru,57.85,114.2,50.29,71,36,4.27,297.503
512,238,Isangel,vu,-19.55,169.27,69.28,100,92,15.46,123.003
513,2137,Barabinsk,ru,55.35,78.35,39.13,95,76,20.83,34.503
514,1558,Bluefield,us,37.27,-81.22,68.25,100,90,4.7,270
515,28,Portland,au,-33.35,149.98,32.92,81,0,1.92,277.003
516,256,Thohoyandou,za,-22.97,30.46,62.53,83,0,3.49,115.503
517,2259,Lindas,no,60.74,5.16,66.76,39,0,2.48,302.003
518,358,Grand Gaube,mu,-20.01,57.66,75.2,83,40,6.93,80
519,1217,Aswan,eg,24.09,32.9,100.4,12,0,4.7,50
520,137,Tacuarembo,uy,-31.73,-55.98,69.82,76,0,6.62,33.503
521,453,Kuito,ao,-12.38,16.94,59.11,54,0,3.94,103.503
522,124,Richards Bay,za,-28.77,32.06,67.84,81,80,5.95,181.003
523,2120,Ustka,pl,54.58,16.86,64.87,74,44,7.96,75.003
524,2406,Sorland,no,67.67,12.69,45.61,96,0,11.43,265.503
525,587,Beberibe,br,-4.18,-38.13,82.4,78,75,9.17,100
526,891,Eravur,lk,7.77,81.61,77.29,100,80,4.38,110.503
527,1061,Barentu,er,15.11,37.59,82.06,27,32,5.61,312.503
528,777,Ixtapa,mx,20.71,-105.21,84.2,70,5,8.05,260
529,127,Gawler,au,-34.6,138.75,68,37,0,11.41,30
530,932,Madurai,in,9.93,78.11,80.6,83,40,2.59,285.503
531,53,Wanaka,nz,-44.7,169.14,33.46,92,92,3.94,231.503
532,1702,Jinchang,cn,38.52,102.19,38.59,62,0,3.38,225.003
533,2322,Chernyshevskiy,ru,63.01,112.47,52.99,61,0,8.75,248.003
534,285,Beira,mz,-19.84,34.84,77,88,20,4.94,139.003
535,584,Itupiranga,br,-5.13,-49.33,98.6,42,40,5.82,80
536,2068,Hrodna,by,53.68,23.83,67.93,60,8,11.88,120.003
537,2110,La Ronge,ca,55.1,-105.3,59,87,90,4.7,200
538,63,Otane,nz,-39.89,176.62,47.68,91,44,11.65,263.503
539,508,Boca Do Acre,br,-8.76,-67.39,86.92,63,32,3.04,145.503
540,1928,Petropavlovsk-Kamchatskiy,ru,53.05,158.65,35.6,100,90,4.47,210
541,1107,Sabya,sa,17.15,42.62,91.4,66,20,6.93,290
542,1706,Chengde,cn,40.97,117.93,57.22,72,44,2.48,299.003
543,642,Sibolga,id,1.74,98.78,68.74,100,36,2.04,70.503
544,1116,Pathein,mm,16.78,94.73,79.09,93,12,7.4,153.503
545,166,Narrabri,au,-30.33,149.78,40.12,85,0,2.26,114.003
546,1170,Isla Mujeres,mx,21.23,-86.73,84.2,70,75,8.05,340
547,1261,Mungaoli,in,24.41,78.09,78.91,49,0,2.48,249.503
548,2048,Quesnel,ca,52.98,-122.49,50,76,1,1.59,231.503
549,2087,Tulun,ru,54.56,100.58,39.94,83,8,2.93,185.503
550,1102,Bilma,ne,18.69,12.92,97.18,12,0,5.61,44.503
551,1053,Douentza,ml,15.01,-2.95,93.49,34,68,3.15,129.503
552,838,Dilla,et,6.41,38.31,58.84,100,100,3.38,109.003
553,785,Roura,gf,4.73,-52.33,78.8,94,68,5.82,100
554,1654,Yuza,jp,39.05,139.95,54.88,86,56,6.96,25.503
555,1069,Machilipatnam,in,16.18,81.14,86,74,20,3.36,190
556,1457,Apache Junction,us,33.41,-111.55,80.89,19,20,4.7,180
557,186,Roma,au,-26.57,148.79,50.92,93,20,8.75,89.003
558,157,Reconquista,ar,-29.14,-59.64,75.94,60,0,10.65,13.503
559,2249,Ossora,ru,59.24,163.07,33.64,100,88,3.94,4.50296
560,2279,Yerbogachen,ru,61.28,108.01,46.15,75,80,6.17,238.503
561,452,Lobito,ao,-12.35,13.55,71.44,77,0,2.26,323.003
562,2155,Palmer,us,61.6,-149.11,48.18,61,90,2.82,244.003
563,1331,Marsa Matruh,eg,31.35,27.25,75.2,69,20,11.41,340
564,634,Kampene,cd,-3.59,26.67,82.78,49,36,3.49,307.503
565,2278,Vanavara,ru,60.35,102.28,50.11,57,92,5.39,255.503
566,537,Paita,pe,-5.09,-81.11,77,69,0,19.46,160
567,550,Cabedelo,br,-6.97,-34.84,84.2,66,75,16.11,110
568,1163,Todos Santos,mx,23.45,-110.23,92.62,24,5,3.36,210
569,1695,Gazli,uz,40.13,63.45,70.45,21,0,5.39,186.003
570,733,Acapulco,mx,16.86,-99.88,86,70,75,13.87,280
571,460,Bandraboua,yt,-12.7,45.12,78.8,74,40,10.29,170
572,485,Luau,ao,-10.71,22.22,75.67,40,68,3.71,132.503
573,1398,Zhicheng,cn,35.04,112.59,65.68,54,56,7.18,289.503
574,1489,Joshimath,in,30.57,79.57,23.83,95,32,0.69,82.003
575,1236,Shingu,jp,33.72,135.99,63.43,100,0,3.6,287.003
576,2430,Iskateley,ru,67.68,53.15,36.25,83,20,18.92,290.003
577,1678,Espinho,pt,41.01,-8.64,65.37,77,20,5.82,290
578,2229,Pozhva,ru,59.09,56.08,50.29,58,68,7.52,263.503
579,385,Mongu,zm,-15.27,23.14,70.18,41,32,6.51,121.003
580,2145,Magistralnyy,ru,56.17,107.45,33.73,89,32,2.37,220.003
581,1869,Baoqing,cn,46.32,132.2,52.81,67,92,3.83,112.503
582,419,Zambezi,zm,-13.55,23.12,66.76,49,0,7.4,127.503
583,2386,Urengoy,ru,65.96,78.37,22.57,91,76,9.08,270.003
584,1444,Dharchula,in,29.85,80.53,48.22,69,0,1.81,19.503
585,949,Juigalpa,ni,12.1,-85.37,84.2,79,40,4.05,261.003
586,1770,Hailey,us,43.52,-114.32,60.8,67,40,10.29,120
587,608,Amahai,id,-3.31,129,79.72,100,80,2.37,316.003
588,1580,Idil,tr,37.34,41.89,77,47,40,13.87,300
589,146,Broken Hill,au,-31.97,141.45,58.3,66,92,13.22,28.503
590,1451,Maanshan,cn,31.7,118.5,69.8,94,90,4.47,40
591,1592,Hami,cn,42.84,93.51,54.16,48,0,6.4,75.003
592,1917,Ulaangom,mn,49.98,92.07,35.26,83,0,2.15,199.503
593,2362,Aklavik,ca,68.22,-135.01,31.28,86,90,14.99,310
594,2310,Dvinskoy,ru,62.16,45.12,67.48,40,100,9.42,280.003
595,112,Whitianga,nz,-36.83,175.7,60.28,100,64,23.73,255.503
596,991,Ocos,gt,14.51,-92.19,87.89,62,90,9.17,210
597,2387,Igarka,ru,67.47,86.57,28.06,97,88,11.32,264.003
598,627,Araioses,br,-2.89,-41.91,89.6,66,40,11.41,70
599,1255,Doha,qa,25.29,51.53,87.8,52,68,2.93,116.503
600,49,Waitati,nz,-45.75,170.57,39.4,93,56,15.57,238.003
601,2088,Balagansk,ru,54.01,103.05,34.63,80,0,2.71,117.503
602,148,Muswellbrook,au,-32.27,150.89,39.13,83,0,2.04,150.503
603,2251,Lavrentiya,ru,65.58,-170.99,30.49,100,76,13.22,298.003
604,2291,Anadyr,ru,64.73,177.51,27.7,86,0,3.04,97.503
605,1915,Ayagoz,kz,47.96,80.43,59.56,51,0,8.19,90.003
606,1081,Anito,ph,12.45,125.29,85.48,96,92,9.64,91.003
607,2433,Dudinka,ru,69.41,86.18,27.61,95,80,5.17,201.503
608,2384,Yar-Sale,ru,66.83,70.83,32.47,92,64,11.32,199.503
609,2084,Kytmanovo,ru,53.46,85.45,61.72,78,68,17.69,206.503
610,1817,Ucluelet,ca,48.94,-125.55,55.4,76,90,10.29,230
611,1135,Jeremie,ht,18.65,-74.12,86.56,75,48,11.43,134.503
612,2241,Kodinsk,ru,58.6,99.18,49.75,64,92,3.6,214.503
613,309,Prata,br,-19.31,-48.92,84.22,38,0,7.4,62.003
614,2163,Hofn,is,64.25,-15.21,46.06,97,92,20.15,199.503
615,1376,Marrakesh,ma,31.63,-7.99,71.6,49,90,4.7,290
616,2415,Talnakh,ru,69.49,88.39,27.07,99,76,6.73,141.503
617,2154,Nome,us,30.04,-94.42,84.97,58,75,6.93,280
618,632,Mangai,cd,-4.07,19.59,82.96,64,12,2.04,100.503
619,1890,Channel-Port Aux Basques,ca,47.57,-59.14,40.75,94,92,9.42,333.003
620,2005,Haverfordwest,gb,51.8,-4.97,73.4,64,92,13.87,50
621,1966,Aksay,kz,51.17,53.01,50.2,39,0,17.47,24.003
622,191,Diego De Almagro,cl,-26.39,-70.05,68.11,77,0,3.38,284.003
623,1788,Cervia,it,44.26,12.35,76.12,69,0,5.82,90
624,1958,Starychi,ua,49.97,23.55,71.6,46,0,13.42,110
625,1551,Durango,us,37.28,-107.88,73.62,12,1,10.29,120
626,1901,Vienna,at,48.21,16.37,76.44,53,0,4.7,140
627,2381,Ust-Tsilma,ru,65.44,52.15,45.88,83,80,12.66,328.003
628,1083,Lompoc,us,34.64,-120.46,62.98,59,1,11.41,280
629,1522,Platanos,gr,35.47,23.6,71.6,78,75,13,351.003
630,1991,Didsbury,ca,51.66,-114.14,61.39,41,20,10.29,330
631,1581,Naqadeh,ir,36.96,45.39,64.78,100,0,5.17,289.503
632,521,Kaniama,cd,-7.57,24.18,74.32,63,8,2.26,97.003
633,1001,Essau,gm,13.48,-16.54,78.8,61,0,14.99,240
634,242,Tocopilla,cl,-22.09,-70.2,63.61,97,48,6.29,219.003
635,1523,Kumluca,tr,36.37,30.29,55.42,71,20,1.59,73.003
636,2401,Clyde River,ca,70.47,-68.59,26.6,86,90,17.22,320
637,220,Sao Sebastiao,br,-3.15,-58.36,81.97,81,64,2.59,178.503
638,295,Poum,nc,-20.23,164.02,71.26,100,92,18.03,92.503
639,1446,Pasighat,in,28.06,95.33,66.31,98,92,1.7,3.00296
640,1894,Skibbereen,ie,51.55,-9.27,66.2,63,40,10.29,40
641,687,Luwuk,id,-0.95,122.79,76.12,100,68,2.93,221.503
642,666,Almeirim,br,-1.53,-52.58,90.34,58,0,4.38,74.503
643,2111,Flin Flon,ca,54.77,-101.88,53.6,93,90,4.7,210
644,2143,Atagay,ru,55.1,99.39,44.08,86,24,2.26,158.003
645,1229,Lao Cai,vn,22.48,103.95,69.28,91,80,1.59,242.003
646,1100,Abalak,ne,15.46,6.28,96.46,26,20,6.96,193.003
647,479,Passo De Camaragibe,br,-9.24,-35.49,78.8,74,40,12.75,120
648,1476,Karpathos,gr,35.51,27.21,71.6,78,40,16.11,320
649,890,Udankudi,in,8.43,78.03,78.46,94,80,7.74,294.503
650,24,Tuatapere,nz,-46.13,167.69,46.06,100,92,19.71,214.503
651,861,Remedios,pa,8.23,-81.83,81.43,77,48,3.6,226.003
652,1903,Drahovo,ua,48.24,23.55,71.6,73,24,2.24,50
653,1840,Gueret,fr,46.17,1.87,68,60,0,3.36,300
654,1350,Zhaotong,cn,27.34,103.71,51.46,85,88,4.16,25.503
655,2027,Kulunda,ru,52.57,78.94,68.02,46,68,11.99,195.503
656,643,Sungaipenuh,id,-2.08,101.38,67.03,98,64,1.14,216.003
657,31,Rocha,uy,-34.48,-54.34,63.34,66,0,9.08,14.003
658,1661,Evanston,us,42.04,-87.69,84.2,51,1,3.36,240
659,2349,Muzhi,ru,65.4,64.7,40.93,69,68,6.85,211.003
660,33,Jamestown,sh,-15.94,-5.72,72.97,100,0,16.8,119.503
661,206,Saint-Pierre,re,-21.34,55.48,71.4,60,0,6.93,40
662,18,Kruisfontein,za,-34,24.73,59.56,99,8,11.65,72.003
663,1871,Svetlaya,ru,46.54,138.33,43.18,96,0,3.71,252.503
664,2270,Urdoma,ru,61.74,48.55,63.34,46,36,10.42,268.003
665,2036,Khilok,ru,51.36,110.46,39.58,69,36,8.75,303.503
666,457,Nkhata Bay,mw,-11.61,34.3,68.02,98,8,5.17,125.003
667,984,Cam Ranh,vn,11.92,109.15,81.07,100,32,4.38,221.003
668,834,Bozoum,cf,6.31,16.38,76.12,78,8,2.48,45.003
669,2248,Talaya,ru,55.79,84.89,41.56,100,92,12.44,33.003
670,464,Daru,pg,-9.07,143.21,79.81,95,100,20.94,130.503
671,1056,Tanout,ne,14.97,8.88,97.99,26,88,3.6,136.003
672,520,Lucapa,ao,-8.42,20.74,70.81,75,8,2.59,55.003
673,253,Gobabis,na,-22.45,18.97,55.51,64,0,3.15,47.503
674,2011,Wschowa,pl,51.8,16.32,72.61,68,0,3.04,0.00296021
675,1256,Sharjah,ae,25.36,55.39,90.09,49,0,5.82,10
676,2085,Biskamzha,ru,53.45,89.53,54.7,78,8,6.17,225.503
677,1910,Aksarayskiy,ru,46.79,48.01,64.4,18,0,15.66,30
678,885,Harer,et,9.31,42.13,63.7,60,0,3.04,177.003
679,1495,Dafeng,cn,33.2,120.46,63.25,95,80,4.72,118.003
680,1555,Lebanon,us,43.64,-72.25,79.5,51,1,4.7,100
681,1478,Yabrud,sy,33.97,36.66,84.2,23,0,6.93,260
682,108,Murray Bridge,au,-35.12,139.28,58.03,89,92,15.23,12.003
683,2339,Raahe,fi,64.68,24.47,53.6,62,0,12.75,270
684,869,Conakry,gn,9.52,-13.7,84.2,70,20,13.87,270
685,1659,Shasta Lake,us,40.68,-122.36,59.79,77,75,3.36,360
686,66,Bambous Virieux,mu,-20.34,57.76,75.2,83,40,6.93,80
687,855,Sumisip,ph,12.51,124.37,82.06,98,36,7.18,94.003
688,983,Dong Xoai,vn,11.53,106.92,75.22,98,64,2.59,89.003
689,1645,Urgut,uz,39.41,67.25,77,22,0,4.7,170
690,1941,Manitouwadge,ca,49.12,-85.84,60.8,77,90,10.29,40
691,531,Maumere,id,-8.63,122.22,79.45,100,0,9.08,169.003
692,1837,Naron,es,43.52,-8.15,59,87,75,5.82,10
693,524,Dunda,tz,-8.12,34.25,71.8,55,12,13.44,125.503
694,1685,Cerrik,al,41.03,19.98,75.2,69,40,6.93,350
695,1612,Black Forest,us,39.01,-104.7,81.52,12,1,6.93,210
696,1431,Ashdod,il,31.8,34.65,75.2,69,0,6.93,20
697,622,Tefe,br,-3.35,-64.71,86,74,40,4.7,310
698,2336,Sistranda,no,63.73,8.83,53.6,58,0,10.29,350
699,2158,Fairview,ca,56.07,-118.38,59,33,20,21.92,250
700,1727,Forest Hills,us,36.07,-86.85,79.9,61,75,5.82,220
701,2077,Yuzhnyy,ru,53.54,39.45,51.91,58,0,5.39,38.503
702,2116,Bridlington,gb,54.08,-0.19,65.28,72,0,11.41,30
703,2164,Letterkenny,ie,54.95,-7.73,71.6,53,0,14.99,60
704,1484,Taywarah,af,33.35,64.42,42.19,50,0,2.37,348.003
705,2414,Snezhnogorsk,ru,69.19,33.23,50,31,40,11.18,310
706,2292,Kenai,us,60.55,-151.26,47.28,66,40,5.82,350
707,1149,Nirmal,in,19.09,78.35,88.9,43,32,8.41,159.003
708,624,Parintins,br,-2.63,-56.73,90.43,55,56,4.38,104.503
709,1348,Tezu,in,27.93,96.16,64.42,94,100,1.7,37.503
710,1353,Yichun,cn,47.72,128.88,45.61,90,44,3.27,93.003
711,393,Antalaha,mg,-14.9,50.28,73.51,100,68,11.32,174.503
712,1955,Marianske Lazne,cz,49.96,12.7,74.98,56,0,9.17,40
713,1174,Cockburn Town,tc,21.46,-71.14,77.74,100,76,23.06,109.003
714,1566,Aljezur,pt,37.31,-8.8,63.43,96,20,7.4,314.003
715,2365,Qasigiannguit,gl,68.82,-51.19,42.8,56,20,8.05,190
716,623,Manaus,br,-3.13,-59.98,79.66,83,40,3.36,200
717,2004,Dunmanway,ie,51.72,-9.12,66.2,63,40,10.29,40
718,2330,Sinegorye,ru,62.09,150.53,28.51,88,64,1.14,266.003
719,1159,San Vicente,ph,14.11,122.87,85.84,100,20,9.98,105.503
720,739,Bonfim,br,-20.33,-44.24,75.2,50,40,9.17,70
721,1515,Melilla,es,35.29,-2.94,71.96,64,0,11.41,290
722,1490,Xining,cn,36.62,101.77,27.79,86,20,3.04,63.003
723,227,Thabazimbi,za,-24.59,27.41,55.15,49,32,2.37,304.503
724,814,Puerto Escondido,mx,15.86,-97.07,87.8,66,20,11.41,190
725,326,Katherine,au,-14.47,132.26,62.6,88,0,5.82,150
726,1209,Miramar,mx,20.64,-103.45,82.4,26,5,3.36,50
727,2351,Nadym,ru,65.53,72.51,29.05,78,88,7.74,187.503
728,1782,A Coruna,es,43.37,-8.4,58.12,93,75,8.05,360
729,1865,Hailar,cn,49.2,119.7,51.01,96,100,16.69,135.503
730,1235,Ishigaki,jp,24.34,124.16,82.87,97,24,10.42,202.503
731,448,Canarana,br,-11.69,-41.77,79.45,52,8,15.79,128.503
732,2031,Shagonar,ru,51.54,92.92,37.15,85,0,2.26,112.003
733,2221,Iisaku,ee,59.1,27.31,65.68,65,0,3.94,200.003
734,1185,Una,in,20.82,71.04,87.82,51,0,12.21,298.503
735,1799,Shetpe,kz,44.14,52.16,65.14,28,0,21.16,14.003
736,1790,Ub,rs,44.46,20.07,72.64,50,40,5.82,60
737,213,Victoria Point,au,-27.58,153.3,58.98,87,20,10.29,200
738,100,Molina,cl,-35.11,-71.28,53.6,71,90,6.93,20
739,2096,Tokur,ru,53.13,132.9,38.32,84,0,1.81,163.003
740,1719,Jerome,us,34.75,-112.11,69.49,12,1,14.99,160
741,821,Ciudad Bolivar,ve,8.12,-63.55,92.86,50,56,9.75,116.003
742,2124,Velizh,ru,55.61,31.2,62.08,59,0,6.73,170.003
743,1663,Sterling,us,39,-77.4,87.13,58,75,4.7,220
744,586,Piripiri,br,-4.27,-41.78,84.49,76,76,5.73,103.503
745,1697,Pop,uz,40.87,71.1,75.2,33,0,9.17,330
746,819,Puerto Rondon,co,6.28,-71.1,83.95,90,44,5.95,177.503
747,2080,Stepnyak,kz,52.83,70.79,49.21,78,76,17.69,358.503
748,1815,Mombetsu,jp,44.35,143.35,43.36,92,56,10.87,300.003
749,2224,Cherepovets,ru,59.13,37.92,65.41,48,64,13,259.003
750,706,Bonthe,sl,7.53,-12.5,82.78,76,88,7.52,248.003
751,1233,Chenghai,cn,23.46,116.77,84.2,79,0,4.47,240
752,1136,Constanza,do,18.91,-70.74,89.6,52,40,20.8,130
753,2063,Harlingen,nl,53.18,5.41,68.67,68,0,13.87,50
754,82,Kiama,au,-34.67,150.86,46.4,100,12,2.82,312.003
755,894,Ron Phibun,th,8.18,99.85,76.12,96,80,2.15,89.503
756,1473,Misratah,ly,32.38,15.09,71.17,80,0,7.74,54.503
757,1623,Praia Da Vitoria,pt,38.73,-27.07,66.2,72,20,6.4,51.503
758,1670,State College,us,40.79,-77.86,84.2,42,40,11.41,230
759,499,Maningrida,au,-12.05,134.23,75.58,87,0,13.78,132.503
760,2045,Oktyabrskiy,ru,55.61,37.97,63.07,42,0,6.71,190
761,870,Rotifunk,sl,8.23,-12.68,85.84,66,32,8.97,250.503
762,1038,La Esperanza,hn,14.31,-88.18,82.4,78,75,0.58,162.503
763,210,Alice Springs,au,-23.7,133.88,53.6,66,44,3.36,260
764,1340,Shahdadkot,pk,27.85,67.91,86.92,15,0,8.08,340.003
765,1947,Saint-Augustin,ca,45.63,-73.98,67.96,60,75,8.05,70
766,824,Sinnamary,gf,5.38,-52.96,80.44,98,88,8.41,73.503
767,219,Apiai,br,-24.51,-48.84,67.21,79,64,2.71,113.503
768,136,Parana,ar,-31.73,-60.52,69.82,71,0,12.44,14.503
769,193,Presidencia Roque Saenz Pena,ar,-26.79,-60.44,77.56,64,0,11.65,37.003
770,746,Bubaque,gw,11.28,-15.83,89.6,43,0,9.17,250
771,2260,Fagernes,no,60.99,9.24,58.12,46,0,2.71,323.503
772,990,Guerrero Negro,mx,27.97,-114.04,68.02,63,32,16.58,309.003
773,468,Pimentel,pe,-6.84,-79.94,73.4,64,40,11.41,190
774,1156,Ha Tinh,vn,18.33,105.9,85.12,90,0,12.77,183.503
775,641,Matara,lk,5.95,80.54,77.2,100,80,9.64,221.503
776,902,Nanakuli,us,21.39,-158.15,73.45,94,1,3.36,290
777,1497,Tobe,jp,33.74,132.79,64.4,88,75,3.36,300
778,1846,Livezile,ro,47.18,24.57,61.99,63,12,3.15,77.003
779,1098,Tombouctou,ml,16.77,-3.01,109.6,11,24,5.61,186.003
780,1526,Sinjar,iq,36.32,41.88,75.58,32,0,4.72,332.003
781,119,Santa Vitoria Do Palmar,br,-33.52,-53.37,66.94,75,0,11.54,21.503
782,2392,Verkhoyansk,ru,67.55,133.39,40.93,63,0,3.27,5.50296
783,8,Port Alfred,za,-33.59,26.89,59.92,100,0,6.29,89.503
784,2146,Kichera,ru,55.93,110.1,31.3,97,92,1.48,18.503
785,724,Sungairaya,id,0.7,108.9,75.31,100,24,2.37,36.003
786,1953,Saint-Hubert,be,50.03,5.37,79.79,54,0,10.29,30
787,96,Dargaville,nz,-35.94,173.86,59.29,80,92,21.83,256.503
788,1203,Shimoda,jp,34.7,138.93,66.4,100,0,7.63,287.003
789,2380,Mezen,ru,65.85,44.24,41.2,91,0,3.38,242.003
790,2254,Yellowknife,ca,62.45,-114.38,55.4,62,75,11.41,60
791,125,Saint-Joseph,re,-21.37,55.62,71.44,60,0,6.93,40
792,346,Maceio,br,-9.67,-35.74,78.8,74,40,12.75,120
793,1316,Empalme,mx,27.96,-110.81,93.2,32,40,17.22,360
794,251,Georgetown,sh,-7.93,-14.42,79.54,100,36,13.22,116.003
795,1334,Tabuk,sa,28.38,36.58,91.4,13,40,11.41,230
796,1605,Provideniya,ru,64.42,-173.23,31.48,95,0,4.05,284.003
797,1262,Sidhi,in,24.41,81.88,91.96,27,64,7.52,65.003
798,555,Mbuji-Mayi,cd,-6.13,23.6,71.26,81,0,2.71,261.003
799,11,Busselton,au,-33.64,115.35,65.14,100,92,21.83,267.503
800,163,Mafeteng,ls,-29.82,27.24,40.3,75,0,3.38,318.003
801,2350,Aksarka,ru,66.56,67.8,32.74,88,20,8.86,229.003
802,2390,Zhigansk,ru,66.77,123.37,43.81,72,0,3.04,27.503
803,254,Dutlwe,bw,-23.98,23.93,60.91,59,32,2.82,14.003
804,652,Lorengau,pg,-2.02,147.27,82.24,100,24,6.96,91.003
805,2233,Salym,ru,60.06,71.48,35.26,63,32,2.48,10.503
806,1120,Dong Hoi,vn,17.48,106.6,81.61,94,0,4.16,201.503
807,1794,Alushta,ua,44.68,34.41,71.62,79,48,20.71,38.503
808,2397,Srednekolymsk,ru,67.46,153.71,30.58,87,8,3.15,14.503
809,445,Sao Miguel Do Araguaia,br,-13.28,-50.16,83.59,72,0,10.98,81.003
810,1945,Port-Cartier,ca,50.03,-66.88,53.6,50,75,9.17,350
811,1325,Marsh Harbour,bs,26.54,-77.06,79.09,96,88,17.69,123.503
812,1161,Nishihara,jp,35.74,139.53,62.67,77,1,5.82,360
813,744,Cururupu,br,-1.82,-44.87,82.87,85,36,6.17,79.503
814,1773,Brookings,us,44.31,-96.8,87.39,39,1,12.75,320
815,1463,Starkville,us,33.45,-88.82,80.6,69,40,5.39,173.003
816,1500,Morro Bay,us,35.37,-120.85,63.79,59,75,14.99,320
817,1598,Binzhou,cn,37.38,117.96,72.79,75,92,8.41,229.503
818,155,La Rioja,ar,-29.41,-66.86,66.4,64,0,4.27,130.003
819,2095,Zeya,ru,53.74,127.27,39.76,80,0,1.81,75.003
820,603,Meulaboh,id,4.14,96.13,82.42,100,92,1.81,41.503
821,1461,Bonham,us,33.58,-96.18,86.59,69,75,6.93,150
822,1603,Ishinomaki,jp,38.42,141.3,57.76,100,12,3.94,80.003
823,1520,Pachino,it,36.72,15.09,77,53,0,10.29,260
824,2173,Jurmala,lv,56.97,23.77,73.4,49,8,3.36,300
825,1462,Camden,us,39.94,-75.12,86.14,58,40,4.7,230
826,1828,Sault Sainte Marie,ca,46.49,-84.36,72.81,73,90,10.29,140
827,2335,Roald,no,62.58,6.12,58.05,81,20,20.8,50
828,2226,Pyshchug,ru,58.89,45.71,60.55,47,36,7.63,265.003
829,950,San Andres,co,8.22,-76.58,78.64,100,92,10.65,175.003
830,299,Vaitape,pf,-16.52,-151.75,80.44,100,32,16.02,92.003
831,1664,Lexington,us,38.05,-84.5,81.75,58,40,5.82,200
832,1807,Baruun-Urt,mn,46.68,113.28,41.47,65,0,16.13,311.503
833,383,Maragogi,br,-9.01,-35.22,78.46,94,88,9.31,124.503
834,1648,Wuwei,cn,37.93,102.64,36.88,80,0,4.61,212.003
835,1791,Bradesti,ro,44.48,23.63,68,77,44,3.6,9.00296
836,1995,Dauphin,ca,51.15,-100.04,66.2,77,75,3.36,70
837,958,Gunjur,gm,13.18,-16.76,78.8,61,0,14.99,240
838,674,Owando,cg,-0.49,15.91,80.98,77,36,1.36,301.503
839,895,Ca Mau,vn,9.18,105.15,79.72,99,20,2.15,49.003
840,1841,Oyonnax,fr,46.26,5.66,74.3,49,0,8.05,20
841,246,Bella Vista,py,-27.04,-55.58,79.75,44,0,5.82,50
842,1157,Zhuhai,cn,40.71,112.04,48.2,66,0,6.71,40
843,904,Nicoya,cr,10.15,-85.45,78.8,94,75,5.82,80
844,1194,Son La,vn,21.32,103.9,70.27,95,76,1.7,248.003
845,355,Vohibinany,mg,-17.35,49.03,68.11,100,92,2.37,161.003
846,1844,Varazdin,hr,46.3,16.34,76.14,53,20,3.36,80
847,1119,Sawang Daen Din,th,17.48,103.46,78.1,90,68,3.49,14.503
848,987,Union,ph,12.9,124.09,83.86,100,88,9.42,97.003
849,334,Huarmey,pe,-10.07,-78.15,72.97,59,0,3.94,219.003
850,1289,Puerto Del Rosario,es,28.5,-13.86,72.39,46,40,16.11,330
851,259,Manakara,mg,-22.14,48.01,72.61,99,0,8.86,30.503
852,2338,Ostersund,se,63.18,14.64,60.8,36,0,5.82,320
853,1761,Mujiayingzi,cn,42.12,118.78,53.26,61,0,3.04,264.503
854,2012,Koluszki,pl,51.74,19.82,68,77,20,11.41,80
855,2315,Oktyabrskoye,ru,56.73,85.44,38.59,99,92,4.72,36.503
856,1772,Sturgis,us,44.41,-103.51,82.17,35,1,10.29,120
857,1987,Vysokogornyy,ru,50.1,139.13,30.76,83,0,2.15,253.003
858,481,Olinda,br,-22.82,-43.41,77.88,47,40,8.05,100
